[
  {
    "iata":"UTK",
    "name":"Utirik Airport",
    "lon":169.86667,
    "lat":11.233333
  },
  {
    "iata":"WKK",
    "name":"Aleknagik / New Airport",
    "lon":-158.61111,
    "lat":59.27778
  },
  {
    "iata":"FOB",
    "name":"Fort Bragg Airport",
    "lon":-123.79444,
    "lat":39.474445
  },
  {
    "iata":"ABP",
    "name":"Atkamba Airport",
    "lon":141.1,
    "lat":-6.066667
  },
  {
    "iata":"ADC",
    "name":"Andakombe Airport",
    "lon":145.73334,
    "lat":-7.133333
  },
  {
    "iata":"TJP",
    "name":"Areopuerto Internacional Michael Gonzalez",
    "lon":-66.563545,
    "lat":18.010702
  },
  {
    "iata":"AEE",
    "name":"Adareil Airport",
    "lon":null,
    "lat":null
  },
  {
    "iata":"AEK",
    "name":"Aseki Airport",
    "lon":146.28334,
    "lat":-7.366667
  },
  {
    "iata":"OLR",
    "name":"Salerno Landing Zone Airport",
    "lon":36.130333,
    "lat":34.023167
  },
  {
    "iata":"AFR",
    "name":"Afore Airstrip",
    "lon":148.38333,
    "lat":-9.133333
  },
  {
    "iata":"AFT",
    "name":"Afutara Aerodrome",
    "lon":160.85,
    "lat":-9.2
  },
  {
    "iata":"ATD",
    "name":"Uru Harbour Airport",
    "lon":161.03334,
    "lat":-8.866667
  },
  {
    "iata":"VEV",
    "name":"Barakoma Airport",
    "lon":159.55,
    "lat":-7.85
  },
  {
    "iata":"GEF",
    "name":"Geva Airport",
    "lon":156.59778,
    "lat":-7.578333
  },
  {
    "iata":"AGG",
    "name":"Angoram Airport",
    "lon":144.07388,
    "lat":-4.168611
  },
  {
    "iata":"AKS",
    "name":"Auki Airport",
    "lon":160.68083,
    "lat":-8.697778
  },
  {
    "iata":"BAS",
    "name":"Ballalae Airport",
    "lon":155.88333,
    "lat":-6.983333
  },
  {
    "iata":"FRE",
    "name":"Fera/Maringe Airport",
    "lon":159.58333,
    "lat":-8.1
  },
  {
    "iata":"HIR",
    "name":"Honiara International Airport",
    "lon":160.04819,
    "lat":-9.428592
  },
  {
    "iata":"MBU",
    "name":"Babanakira Airport",
    "lon":160.75,
    "lat":-9.733333
  },
  {
    "iata":"IRA",
    "name":"Ngorangora Airport",
    "lon":161.83333,
    "lat":-10.5
  },
  {
    "iata":"SCZ",
    "name":"Santa Cruz/Graciosa Bay/Luova Airport",
    "lon":166.85,
    "lat":-11.616667
  },
  {
    "iata":"MUA",
    "name":"Munda Airport",
    "lon":157.26971,
    "lat":-8.32794
  },
  {
    "iata":"GZO",
    "name":"Nusatupe Airport",
    "lon":156.83333,
    "lat":-8.116667
  },
  {
    "iata":"MNY",
    "name":"Mono Airport",
    "lon":155.56462,
    "lat":-7.417428
  },
  {
    "iata":"PRS",
    "name":"Parasi Airport",
    "lon":158,
    "lat":-8.166667
  },
  {
    "iata":"RNL",
    "name":"Rennell/Tingoa Airport",
    "lon":160.3,
    "lat":-11.666667
  },
  {
    "iata":"EGM",
    "name":"Sege Airport",
    "lon":157.87506,
    "lat":-8.577956
  },
  {
    "iata":"RUS",
    "name":"Marau Airport",
    "lon":161.25,
    "lat":-8.5
  },
  {
    "iata":"VAO",
    "name":"Suavanao Airport",
    "lon":158.66667,
    "lat":-7.566667
  },
  {
    "iata":"AGK",
    "name":"Kagua Airport",
    "lon":143.84666,
    "lat":-6.403333
  },
  {
    "iata":"KGE",
    "name":"Kagau Island Airport",
    "lon":157.5861,
    "lat":-8.165
  },
  {
    "iata":"AGL",
    "name":"Wanigela Airport",
    "lon":149.15527,
    "lat":-9.340278
  },
  {
    "iata":"RIN",
    "name":"Ringi Cove Airport",
    "lon":157.03334,
    "lat":-8.2
  },
  {
    "iata":"RBV",
    "name":"Ramata Airport",
    "lon":157.63945,
    "lat":-8.165556
  },
  {
    "iata":"AHY",
    "name":"Ambatolhy Airport",
    "lon":45.533333,
    "lat":-20.016666
  },
  {
    "iata":"AIE",
    "name":"Aiome Airport",
    "lon":144.66667,
    "lat":-5.166667
  },
  {
    "iata":"AIH",
    "name":"Aiambak Airport",
    "lon":141.26639,
    "lat":-7.348611
  },
  {
    "iata":"AIP",
    "name":"Ailinglaplap Airport",
    "lon":168.81667,
    "lat":7.266667
  },
  {
    "iata":"AKM",
    "name":"Zakuoma Airport",
    "lon":19.816668,
    "lat":10.883333
  },
  {
    "iata":"AMC",
    "name":"",
    "lon":20.283333,
    "lat":11.033333
  },
  {
    "iata":"AME",
    "name":"Alto Molocue Airport",
    "lon":37.583332,
    "lat":-15.833333
  },
  {
    "iata":"AMF",
    "name":"AMA Airport",
    "lon":141.66667,
    "lat":-4.166667
  },
  {
    "iata":"AMU",
    "name":"Amanab Airport",
    "lon":141.15,
    "lat":-3.516667
  },
  {
    "iata":"AMY",
    "name":"Ambatomainty Airport",
    "lon":45.666668,
    "lat":-17.683332
  },
  {
    "iata":"INU",
    "name":"Nauru International Airport",
    "lon":166.91667,
    "lat":-0.533333
  },
  {
    "iata":"ANL",
    "name":"Andulo Airport",
    "lon":17.25,
    "lat":-11.25
  },
  {
    "iata":"CNZ",
    "name":"Cangamba Airport",
    "lon":19,
    "lat":-11.5
  },
  {
    "iata":"DRC",
    "name":"Dirico Airport",
    "lon":20.7,
    "lat":-17.833332
  },
  {
    "iata":"GGC",
    "name":"Lumbala Airport",
    "lon":22.566668,
    "lat":-12.65
  },
  {
    "iata":"JMB",
    "name":"Jamba Airport",
    "lon":16.083332,
    "lat":-14.7
  },
  {
    "iata":"KNP",
    "name":"Capanda Airport",
    "lon":15.450278,
    "lat":-9.766944
  },
  {
    "iata":"NDF",
    "name":"Ndalatandos Airport",
    "lon":14.833333,
    "lat":-9.333333
  },
  {
    "iata":"AOB",
    "name":"Annanberg Airport",
    "lon":144.65,
    "lat":-4.916667
  },
  {
    "iata":"APP",
    "name":"Asapa Airport",
    "lon":148.13333,
    "lat":-8.983333
  },
  {
    "iata":"APR",
    "name":"April River Airport",
    "lon":145,
    "lat":-8.5
  },
  {
    "iata":"AQY",
    "name":"Girdwood Airport",
    "lon":-149.11667,
    "lat":60.966667
  },
  {
    "iata":"QRF",
    "name":"Bragado Airport",
    "lon":-60.466667,
    "lat":-35.13333
  },
  {
    "iata":"CSZ",
    "name":"Brigadier Hector Ruiz Airport",
    "lon":-61.88333,
    "lat":-37.433334
  },
  {
    "iata":"CVI",
    "name":"Caleta Olivia Airport",
    "lon":-67.416664,
    "lat":-46.416668
  },
  {
    "iata":"CNT",
    "name":"Charata Airport",
    "lon":-61.233334,
    "lat":-27.216667
  },
  {
    "iata":"VGS",
    "name":"General Villegas Airport",
    "lon":-63,
    "lat":-35.083332
  },
  {
    "iata":"LMD",
    "name":"Los Menucos Airport",
    "lon":-68.13333,
    "lat":-40.833332
  },
  {
    "iata":"VCF",
    "name":"Valcheta Airport",
    "lon":-66.15,
    "lat":-40.7
  },
  {
    "iata":"VME",
    "name":"Villa Mercedes Airport",
    "lon":-65.416664,
    "lat":-33.63333
  },
  {
    "iata":"NCJ",
    "name":"Sunchales Aeroclub Airport",
    "lon":null,
    "lat":null
  },
  {
    "iata":"CPG",
    "name":"Carmen De Patagones Airport",
    "lon":-62.979782,
    "lat":-40.782757
  },
  {
    "iata":"PRQ",
    "name":"Termal Airport",
    "lon":-60.666668,
    "lat":-26.833332
  },
  {
    "iata":"ARP",
    "name":"Aragip Airport",
    "lon":149.5,
    "lat":-9.8
  },
  {
    "iata":"TAV",
    "name":"Tau Airport",
    "lon":-169.45,
    "lat":-14.25
  },
  {
    "iata":"ASZ",
    "name":"Asirim Airport",
    "lon":150.36667,
    "lat":-5.866667
  },
  {
    "iata":"ATP",
    "name":"Aitape Airport",
    "lon":142.28334,
    "lat":-3.166667
  },
  {
    "iata":"AGW",
    "name":"Agnew Airport",
    "lon":142.15,
    "lat":-12.15
  },
  {
    "iata":"AYD",
    "name":"Alroy Downs Airport",
    "lon":135.95,
    "lat":-19.3
  },
  {
    "iata":"BCK",
    "name":"Bolwarra Airport",
    "lon":144.16667,
    "lat":-17.4
  },
  {
    "iata":"BFC",
    "name":"Bloomfield Airport",
    "lon":145.33333,
    "lat":-15.9
  },
  {
    "iata":"BVW",
    "name":"Batavia Downs Airport",
    "lon":143.21666,
    "lat":-12.65
  },
  {
    "iata":"BYX",
    "name":"Baniyala Airport",
    "lon":136.23334,
    "lat":-13.2
  },
  {
    "iata":"COB",
    "name":"Coolibah Airport",
    "lon":130.93333,
    "lat":-15.55
  },
  {
    "iata":"CQP",
    "name":"Cape Flattery Airport",
    "lon":147.5,
    "lat":-18.2
  },
  {
    "iata":"CRJ",
    "name":"Coorabie Airport",
    "lon":132.3,
    "lat":-31.9
  },
  {
    "iata":"CRY",
    "name":"Carlton Hill Airport",
    "lon":128.61667,
    "lat":-15.466667
  },
  {
    "iata":"CSD",
    "name":"Cresswell Downs Airport",
    "lon":135.91667,
    "lat":-17.966667
  },
  {
    "iata":"CTR",
    "name":"Cattle Creek Airport",
    "lon":131,
    "lat":-17.583332
  },
  {
    "iata":"DYM",
    "name":"Diamantina Lakes Airport",
    "lon":139.16667,
    "lat":-26.75
  },
  {
    "iata":"EDD",
    "name":"Erldunda Airport",
    "lon":133.2,
    "lat":-25.25
  },
  {
    "iata":"EKD",
    "name":"Elkedra Airport",
    "lon":135.55,
    "lat":-21.15
  },
  {
    "iata":"HAT",
    "name":"Heathlands Airport",
    "lon":140.58333,
    "lat":-19.720833
  },
  {
    "iata":"HIG",
    "name":"Highbury Airport",
    "lon":143.15,
    "lat":-16.416668
  },
  {
    "iata":"HLV",
    "name":"Helenvale Airport",
    "lon":145.2,
    "lat":-15.683333
  },
  {
    "iata":"KBD",
    "name":"Kimberley Downs Airport",
    "lon":124.35,
    "lat":-17.333332
  },
  {
    "iata":"KGR",
    "name":"Kulgera Airport",
    "lon":133.03334,
    "lat":-25.833332
  },
  {
    "iata":"KOH",
    "name":"Koolatah Airport",
    "lon":142.41667,
    "lat":-15.966667
  },
  {
    "iata":"KYF",
    "name":"Yeelirrie Airport",
    "lon":120.075,
    "lat":-27.277779
  },
  {
    "iata":"LIB",
    "name":"Limbunya Airport",
    "lon":129.8,
    "lat":-17.2
  },
  {
    "iata":"MNW",
    "name":"Macdonald Downs Airport",
    "lon":135.21666,
    "lat":-22.45
  },
  {
    "iata":"MUP",
    "name":"Mulga Park Airport",
    "lon":141.05,
    "lat":-31.133333
  },
  {
    "iata":"MWY",
    "name":"Miranda Downs Airport",
    "lon":141.51666,
    "lat":-25.783333
  },
  {
    "iata":"MYO",
    "name":"Camballin Airport",
    "lon":124.26667,
    "lat":-18.116667
  },
  {
    "iata":"NKB",
    "name":"Noonkanbah Airport",
    "lon":124.85,
    "lat":-18.55
  },
  {
    "iata":"OKB",
    "name":"Orchid Beach Airport",
    "lon":153.16667,
    "lat":-25.25
  },
  {
    "iata":"PEP",
    "name":"Peppimenarti Airport",
    "lon":130.1,
    "lat":-14.15
  },
  {
    "iata":"RDA",
    "name":"Rockhampton Downs Airport",
    "lon":135.16667,
    "lat":-18.95
  },
  {
    "iata":"SSK",
    "name":"Sturt Creek Airport",
    "lon":128.13333,
    "lat":-19.2
  },
  {
    "iata":"SWB",
    "name":"Shaw River Airport",
    "lon":119.36667,
    "lat":-21.516666
  },
  {
    "iata":"TPR",
    "name":"Tom Price Airport",
    "lon":117.666664,
    "lat":-22.75
  },
  {
    "iata":"TWP",
    "name":"Torwood Airport",
    "lon":143.75,
    "lat":-17.366667
  },
  {
    "iata":"WRW",
    "name":"Warrawagine Airport",
    "lon":120.71667,
    "lat":-20.866667
  },
  {
    "iata":"WSY",
    "name":"Whitsunday Airstrip",
    "lon":148.75278,
    "lat":-20.502777
  },
  {
    "iata":"ZVG",
    "name":"Springvale Airport",
    "lon":127.583336,
    "lat":-17.866667
  },
  {
    "iata":"AUI",
    "name":"Aua Island Airport",
    "lon":143.075,
    "lat":-1.458333
  },
  {
    "iata":"AUJ",
    "name":"Ambunti Airport",
    "lon":142.85,
    "lat":-4.25
  },
  {
    "iata":"AUP",
    "name":"Agaun Airport",
    "lon":149.58333,
    "lat":-9.983333
  },
  {
    "iata":"AUV",
    "name":"Aumo Airport",
    "lon":148.43333,
    "lat":-5.716667
  },
  {
    "iata":"BUA",
    "name":"Buka Airport",
    "lon":154.67288,
    "lat":-5.422443
  },
  {
    "iata":"CMU",
    "name":"Chimbu Airport",
    "lon":144.97444,
    "lat":-5.993889
  },
  {
    "iata":"DAU",
    "name":"Daru Airport",
    "lon":143.20605,
    "lat":-9.08351
  },
  {
    "iata":"GKA",
    "name":"Goroka Airport",
    "lon":145.39293,
    "lat":-6.075244
  },
  {
    "iata":"GUR",
    "name":"Gurney Airport",
    "lon":150.33861,
    "lat":-10.310833
  },
  {
    "iata":"PNP",
    "name":"Girua Airport",
    "lon":148.30873,
    "lat":-8.807474
  },
  {
    "iata":"HKN",
    "name":"Kimbe Airport",
    "lon":150.403,
    "lat":-5.456876
  },
  {
    "iata":"LSA",
    "name":"Losuia Airport",
    "lon":151.025,
    "lat":-8.363889
  },
  {
    "iata":"UNG",
    "name":"Kiunga Airport",
    "lon":141.28601,
    "lat":-6.125552
  },
  {
    "iata":"KRI",
    "name":"Kikori Airport",
    "lon":144.26666,
    "lat":-7.483333
  },
  {
    "iata":"KMA",
    "name":"Kerema Airport",
    "lon":145.77155,
    "lat":-7.961702
  },
  {
    "iata":"KVG",
    "name":"Kavieng Airport",
    "lon":150.80653,
    "lat":-2.58075
  },
  {
    "iata":"LNV",
    "name":"Londolovit Airport",
    "lon":152.6272,
    "lat":-3.043223
  },
  {
    "iata":"MAG",
    "name":"Madang Airport",
    "lon":145.78784,
    "lat":-5.210852
  },
  {
    "iata":"HGU",
    "name":"Mount Hagen Kagamuga Airport",
    "lon":144.29738,
    "lat":-5.828767
  },
  {
    "iata":"MDU",
    "name":"Mendi Airport",
    "lon":143.65,
    "lat":-6.158611
  },
  {
    "iata":"MAS",
    "name":"Momote Airport",
    "lon":147.42444,
    "lat":-2.056667
  },
  {
    "iata":"MXH",
    "name":"Moro Airport",
    "lon":143.25055,
    "lat":-6.3525
  },
  {
    "iata":"MIS",
    "name":"Misima Island Airport",
    "lon":152.84166,
    "lat":-10.5
  },
  {
    "iata":"LAE",
    "name":"Lae Nadzab Airport",
    "lon":146.72757,
    "lat":-6.562694
  },
  {
    "iata":"POM",
    "name":"Port Moresby Jacksons International Airport",
    "lon":147.21446,
    "lat":-9.444308
  },
  {
    "iata":"TIZ",
    "name":"Tari Airport",
    "lon":142.94055,
    "lat":-5.860556
  },
  {
    "iata":"TBG",
    "name":"Tabubil Airport",
    "lon":141.227,
    "lat":-5.274722
  },
  {
    "iata":"RAB",
    "name":"Tokua Airport",
    "lon":152.36667,
    "lat":-4.333333
  },
  {
    "iata":"AYU",
    "name":"Aiyura Airport",
    "lon":145.9,
    "lat":-6.333333
  },
  {
    "iata":"VAI",
    "name":"Vanimo Airport",
    "lon":141.30194,
    "lat":-2.694722
  },
  {
    "iata":"WBM",
    "name":"Wapenamanda Airport",
    "lon":143.91667,
    "lat":-5.616667
  },
  {
    "iata":"WWK",
    "name":"Wewak International Airport",
    "lon":143.66916,
    "lat":-3.580034
  },
  {
    "iata":"AZB",
    "name":"Amazon Bay Airport",
    "lon":148.81667,
    "lat":-10.15
  },
  {
    "iata":"BCW",
    "name":"Benguera Island Airport",
    "lon":35.425,
    "lat":-21.884722
  },
  {
    "iata":"HKV",
    "name":"Haskovo Airport",
    "lon":25.55,
    "lat":41.933334
  },
  {
    "iata":"JAM",
    "name":"Bezmer Air Base",
    "lon":26.483334,
    "lat":42.516666
  },
  {
    "iata":"JEG",
    "name":"Aasiaat Airport",
    "lon":-52.75,
    "lat":68.7
  },
  {
    "iata":"UAK",
    "name":"Narsarsuaq Airport",
    "lon":-45.316666,
    "lat":61.166668
  },
  {
    "iata":"CNP",
    "name":"Neerlerit Inaat Airport",
    "lon":-22.658333,
    "lat":70.74306
  },
  {
    "iata":"GOH",
    "name":"Godthaab / Nuuk Airport",
    "lon":-51.725,
    "lat":64.181946
  },
  {
    "iata":"JAV",
    "name":"Ilulissat Airport",
    "lon":-51.05991,
    "lat":69.24186
  },
  {
    "iata":"KUS",
    "name":"Kulusuk Airport",
    "lon":-37.11667,
    "lat":65.566666
  },
  {
    "iata":"JSU",
    "name":"Maniitsoq Airport",
    "lon":-52.93537,
    "lat":65.41244
  },
  {
    "iata":"JFR",
    "name":"Paamiut Airport",
    "lon":-49.70028,
    "lat":62.00028
  },
  {
    "iata":"NAQ",
    "name":"Qaanaaq Airport",
    "lon":-69.382996,
    "lat":77.48948
  },
  {
    "iata":"SFJ",
    "name":"Kangerlussuaq Airport",
    "lon":-50.719723,
    "lat":67.01222
  },
  {
    "iata":"JHS",
    "name":"Sisimiut Airport",
    "lon":-53.704166,
    "lat":66.93694
  },
  {
    "iata":"THU",
    "name":"Thule Air Base",
    "lon":-68.7,
    "lat":76.53333
  },
  {
    "iata":"JUV",
    "name":"Upernavik Airport",
    "lon":-56.130554,
    "lat":72.790276
  },
  {
    "iata":"JQA",
    "name":"Qaarsut Airport",
    "lon":-52.702778,
    "lat":70.73194
  },
  {
    "iata":"BHL",
    "name":"",
    "lon":-113.55,
    "lat":28.95
  },
  {
    "iata":"AEY",
    "name":"Akureyri Airport",
    "lon":-18.075068,
    "lat":65.654564
  },
  {
    "iata":"BIU",
    "name":"Bildudalur Airport",
    "lon":-23.983334,
    "lat":65.833336
  },
  {
    "iata":"BGJ",
    "name":"",
    "lon":-14.5,
    "lat":66
  },
  {
    "iata":"BJD",
    "name":"",
    "lon":-14.75,
    "lat":66.066666
  },
  {
    "iata":"BLO",
    "name":"Hjaltabakki Airport",
    "lon":-20.3,
    "lat":65.666664
  },
  {
    "iata":"BQD",
    "name":"",
    "lon":null,
    "lat":null
  },
  {
    "iata":"BXV",
    "name":"",
    "lon":-14,
    "lat":64.76667
  },
  {
    "iata":"DJU",
    "name":"",
    "lon":-14.268333,
    "lat":64.650276
  },
  {
    "iata":"EGS",
    "name":"",
    "lon":-14.402778,
    "lat":65.27778
  },
  {
    "iata":"FAS",
    "name":"",
    "lon":-14.016667,
    "lat":64.95
  },
  {
    "iata":"FAG",
    "name":"",
    "lon":-16.65,
    "lat":63.88333
  },
  {
    "iata":"GUU",
    "name":"",
    "lon":-23.166668,
    "lat":64.96667
  },
  {
    "iata":"GJR",
    "name":"",
    "lon":-21.35,
    "lat":65.98333
  },
  {
    "iata":"GRY",
    "name":"",
    "lon":-18.016666,
    "lat":66.566666
  },
  {
    "iata":"HVK",
    "name":"",
    "lon":-22.466667,
    "lat":65.7
  },
  {
    "iata":"HFN",
    "name":"Hornafjordur Airport",
    "lon":-15.266667,
    "lat":64.28333
  },
  {
    "iata":"FLI",
    "name":"Holt Airport",
    "lon":-23.7,
    "lat":65.98333
  },
  {
    "iata":"HZK",
    "name":"Husavik Airport",
    "lon":-17.427778,
    "lat":65.95528
  },
  {
    "iata":"HVM",
    "name":"",
    "lon":-21,
    "lat":65.416664
  },
  {
    "iata":"HLO",
    "name":"",
    "lon":15.5,
    "lat":29.5
  },
  {
    "iata":"IFJ",
    "name":"",
    "lon":-23.132778,
    "lat":66.05972
  },
  {
    "iata":"KEF",
    "name":"Keflavik International Airport",
    "lon":-22.624283,
    "lat":63.997765
  },
  {
    "iata":"OPA",
    "name":"",
    "lon":-16.483334,
    "lat":66.416664
  },
  {
    "iata":"SAK",
    "name":"",
    "lon":-19.65,
    "lat":65.75
  },
  {
    "iata":"NOR",
    "name":"",
    "lon":-22,
    "lat":65.166664
  },
  {
    "iata":"OFJ",
    "name":"",
    "lon":-19.833332,
    "lat":65.583336
  },
  {
    "iata":"PFJ",
    "name":"Patreksfjordur Airport",
    "lon":-19.008333,
    "lat":65.03333
  },
  {
    "iata":"RHA",
    "name":"",
    "lon":-21.416668,
    "lat":65.166664
  },
  {
    "iata":"OLI",
    "name":"Rif Airport",
    "lon":-23.983334,
    "lat":65
  },
  {
    "iata":"RFN",
    "name":"",
    "lon":-15.016667,
    "lat":66.416664
  },
  {
    "iata":"REK",
    "name":"Reykjavik Airport",
    "lon":null,
    "lat":null
  },
  {
    "iata":"MVA",
    "name":"",
    "lon":-16.966667,
    "lat":65.61667
  },
  {
    "iata":"SIJ",
    "name":"Siglufjordur Airport",
    "lon":-18.933332,
    "lat":66.166664
  },
  {
    "iata":"SYK",
    "name":"",
    "lon":-22.8,
    "lat":65.1
  },
  {
    "iata":"TEY",
    "name":"",
    "lon":-23.45,
    "lat":65.88333
  },
  {
    "iata":"THO",
    "name":"Thorshofn Airport",
    "lon":-15.335653,
    "lat":66.219734
  },
  {
    "iata":"VEY",
    "name":"Vestmannaeyjar Airport",
    "lon":-20.277779,
    "lat":63.426388
  },
  {
    "iata":"VPN",
    "name":"",
    "lon":-14.846748,
    "lat":65.72167
  },
  {
    "iata":"BJE",
    "name":"Baleela Airport",
    "lon":null,
    "lat":null
  },
  {
    "iata":"BJQ",
    "name":"Bahja Airport",
    "lon":null,
    "lat":null
  },
  {
    "iata":"PRN",
    "name":"",
    "lon":21.035557,
    "lat":42.573612
  },
  {
    "iata":"BLM",
    "name":"Bahia De Los Angelos South",
    "lon":-74.01667,
    "lat":40.183334
  },
  {
    "iata":"BMQ",
    "name":"Bamburi Airport",
    "lon":39.833332,
    "lat":-4.5
  },
  {
    "iata":"RBQ",
    "name":"Rurenabaque Airport",
    "lon":-67.55,
    "lat":-14.45
  },
  {
    "iata":"BVL",
    "name":"Baures Airport",
    "lon":-63.583332,
    "lat":-13.583333
  },
  {
    "iata":"HUK",
    "name":"Hukuntsi Airport",
    "lon":21.75,
    "lat":-23.983334
  },
  {
    "iata":"BCV",
    "name":"Belmopan Airport",
    "lon":-88.77904,
    "lat":17.270498
  },
  {
    "iata":"BGK",
    "name":"Big Creek Airport",
    "lon":-88.4,
    "lat":16.516666
  },
  {
    "iata":"CUK",
    "name":"Caye Caulker Airport",
    "lon":-88.02956,
    "lat":17.735527
  },
  {
    "iata":"CYC",
    "name":"Caye Chapel Airport",
    "lon":-88.833336,
    "lat":17.666668
  },
  {
    "iata":"CZH",
    "name":"Corozal Municipal Airport",
    "lon":-88.410675,
    "lat":18.382334
  },
  {
    "iata":"DGA",
    "name":"Dangriga Airport",
    "lon":-88.23039,
    "lat":16.982765
  },
  {
    "iata":"INB",
    "name":"Independence Airport",
    "lon":-88.43826,
    "lat":16.535536
  },
  {
    "iata":"MDB",
    "name":"Melinda Airport",
    "lon":-88.32056,
    "lat":16.998611
  },
  {
    "iata":"ORZ",
    "name":"Orange Walk Airport",
    "lon":-88.75,
    "lat":17.166668
  },
  {
    "iata":"PLJ",
    "name":"Placencia Airport",
    "lon":-88.360886,
    "lat":16.53708
  },
  {
    "iata":"PND",
    "name":"Punta Gorda Airport",
    "lon":-88.816666,
    "lat":16.1
  },
  {
    "iata":"SJX",
    "name":"Sartaneja Airport",
    "lon":-88.333336,
    "lat":18.3
  },
  {
    "iata":"SPR",
    "name":"San Pedro Airport",
    "lon":-87.96571,
    "lat":17.917067
  },
  {
    "iata":"SQS",
    "name":"Matthew Spain Airport",
    "lon":-89.03333,
    "lat":17.183332
  },
  {
    "iata":"STU",
    "name":"Santa Cruz Airport",
    "lon":-88.45,
    "lat":18.266666
  },
  {
    "iata":"SVK",
    "name":"Silver Creek Airport",
    "lon":-88.34,
    "lat":16.7253
  },
  {
    "iata":"TZA",
    "name":"Belize City Municipal Airport",
    "lon":-88.191666,
    "lat":17.51639
  },
  {
    "iata":"BZB",
    "name":"Bazaruto Island Airport",
    "lon":35.49167,
    "lat":-21.534721
  },
  {
    "iata":"YMV",
    "name":"Mary River Aerodrome",
    "lon":null,
    "lat":null
  },
  {
    "iata":"YZZ",
    "name":"Trail Airport",
    "lon":-117.6,
    "lat":49.066666
  },
  {
    "iata":"YAA",
    "name":"Anahim Lake Airport",
    "lon":-125.3,
    "lat":52.45
  },
  {
    "iata":"JHL",
    "name":"Fort MacKay/Albian Aerodrome",
    "lon":-111.41889,
    "lat":57.22389
  },
  {
    "iata":"YWM",
    "name":"Williams Harbour Airport",
    "lon":-56.01282,
    "lat":52.335438
  },
  {
    "iata":"YFX",
    "name":"St. Lewis (Fox Harbour) Airport",
    "lon":-55.683334,
    "lat":52.36667
  },
  {
    "iata":"YHA",
    "name":"Port Hope Simpson Airport",
    "lon":-56.3,
    "lat":52.533333
  },
  {
    "iata":"YRG",
    "name":"Rigolet Airport",
    "lon":-58.416668,
    "lat":54.333332
  },
  {
    "iata":"CDK",
    "name":"George T Lewis Airport",
    "lon":-83.03333,
    "lat":29.133333
  },
  {
    "iata":"YCK",
    "name":"Colville Lake Airport",
    "lon":-126.09047,
    "lat":67.03993
  },
  {
    "iata":"YLE",
    "name":"",
    "lon":-117.24318,
    "lat":63.132942
  },
  {
    "iata":"NML",
    "name":"Fort McMurray / Mildred Lake Airport",
    "lon":null,
    "lat":null
  },
  {
    "iata":"DAS",
    "name":"Great Bear Lake Airport",
    "lon":-119.712776,
    "lat":66.70306
  },
  {
    "iata":"YFI",
    "name":"Fort Mackay / Firebag",
    "lon":null,
    "lat":null
  },
  {
    "iata":"OKG",
    "name":"Okoyo Airport",
    "lon":15,
    "lat":-1.466667
  },
  {
    "iata":"SUR",
    "name":"Summer Beaver Airport",
    "lon":-88.5475,
    "lat":52.71528
  },
  {
    "iata":"YAX",
    "name":"Wapekeka Airport",
    "lon":-89.565,
    "lat":53.251945
  },
  {
    "iata":"WNN",
    "name":"Wunnumin Lake Airport",
    "lon":-89.166664,
    "lat":52.916668
  },
  {
    "iata":"YNO",
    "name":"North Spirit Lake Airport",
    "lon":-92.416664,
    "lat":52.5
  },
  {
    "iata":"OHE",
    "name":"Gu-Lian Airport",
    "lon":122.42059,
    "lat":52.92113
  },
  {
    "iata":"FUO",
    "name":"Foshan Shadi Airport",
    "lon":113.28333,
    "lat":23.133333
  },
  {
    "iata":"HUZ",
    "name":"Huizhou Airport",
    "lon":114.36667,
    "lat":23.083332
  },
  {
    "iata":"JGS",
    "name":"Jinggangshan Airport",
    "lon":114.7375,
    "lat":26.899721
  },
  {
    "iata":"AEB",
    "name":"Tian Yang Air Base",
    "lon":106.96777,
    "lat":23.71947
  },
  {
    "iata":"AAT",
    "name":"Altay Air Base",
    "lon":88.08444,
    "lat":47.750362
  },
  {
    "iata":"YZY",
    "name":"Zhangye Southeast Air Base",
    "lon":100.660835,
    "lat":38.8075
  },
  {
    "iata":"DDG",
    "name":"Dandong Airport",
    "lon":124.28081,
    "lat":40.032368
  },
  {
    "iata":"NTG",
    "name":"Nantong Airport",
    "lon":120.9756,
    "lat":32.07292
  },
  {
    "iata":"XBE",
    "name":"Bearskin Lake Airport",
    "lon":-90.98333,
    "lat":53.95
  },
  {
    "iata":"KIF",
    "name":"Kingfisher Lake Airport",
    "lon":-89.85,
    "lat":53.01389
  },
  {
    "iata":"YOG",
    "name":"Ogoki Post Airport",
    "lon":-85.916664,
    "lat":51.666668
  },
  {
    "iata":"API",
    "name":"Apiay Airport",
    "lon":-73.05194,
    "lat":4.068889
  },
  {
    "iata":"APO",
    "name":"",
    "lon":-76.71766,
    "lat":7.817678
  },
  {
    "iata":"ARQ",
    "name":"El Troncal Airport",
    "lon":-71.43166,
    "lat":7.033056
  },
  {
    "iata":"LCR",
    "name":"La Chorrera Airport",
    "lon":-73.01667,
    "lat":-0.733333
  },
  {
    "iata":"SNT",
    "name":"Las Cruces Airport",
    "lon":-73,
    "lat":7.666667
  },
  {
    "iata":"TCD",
    "name":"",
    "lon":-69.76667,
    "lat":-2.933333
  },
  {
    "iata":"YEB",
    "name":"Bar River Airport",
    "lon":null,
    "lat":null
  },
  {
    "iata":"YHP",
    "name":"Poplar Hill Airport",
    "lon":-94.3,
    "lat":52.083332
  },
  {
    "iata":"YNX",
    "name":"Snap Lake Airport",
    "lon":null,
    "lat":null
  },
  {
    "iata":"YKU",
    "name":"Chisasibi Airport",
    "lon":-78.924065,
    "lat":53.806824
  },
  {
    "iata":"ZTB",
    "name":"",
    "lon":-59.333332,
    "lat":50.716667
  },
  {
    "iata":"YAU",
    "name":"Donaldson Airport",
    "lon":-73.31694,
    "lat":61.662777
  },
  {
    "iata":"ZLT",
    "name":"",
    "lon":-58.97601,
    "lat":50.828056
  },
  {
    "iata":"PST",
    "name":"Preston Airport",
    "lon":-75.666664,
    "lat":20.75
  },
  {
    "iata":"GEC",
    "name":"",
    "lon":33.716667,
    "lat":35.233334
  },
  {
    "iata":"YAC",
    "name":"Cat Lake Airport",
    "lon":-91.816666,
    "lat":51.716667
  },
  {
    "iata":"YAG",
    "name":"Fort Frances Municipal Airport",
    "lon":-93.44722,
    "lat":48.65278
  },
  {
    "iata":"YAH",
    "name":"La Grande-4 Airport",
    "lon":-73.65,
    "lat":53.75
  },
  {
    "iata":"YAL",
    "name":"Alert Bay Airport",
    "lon":-126.916664,
    "lat":50.583332
  },
  {
    "iata":"YAM",
    "name":"Sault Ste Marie Airport",
    "lon":-84.49995,
    "lat":46.485302
  },
  {
    "iata":"XKS",
    "name":"Kasabonika Airport",
    "lon":-88.64667,
    "lat":53.52
  },
  {
    "iata":"YKG",
    "name":"Kangirsuk Airport",
    "lon":-70.0046,
    "lat":60.023083
  },
  {
    "iata":"YAT",
    "name":"Attawapiskat Airport",
    "lon":-82.4,
    "lat":52.941666
  },
  {
    "iata":"YAV",
    "name":"Winnipeg / St. Andrews Airport",
    "lon":-123.3,
    "lat":48.86667
  },
  {
    "iata":"YAX",
    "name":"Lac Du Bonnet Airport",
    "lon":-89.565,
    "lat":53.251945
  },
  {
    "iata":"YAY",
    "name":"St Anthony Airport",
    "lon":-55.583332,
    "lat":51.36667
  },
  {
    "iata":"YAZ",
    "name":"Tofino / Long Beach Airport",
    "lon":-125.77639,
    "lat":49.076942
  },
  {
    "iata":"YBB",
    "name":"Kugaaruk Airport",
    "lon":-89.85,
    "lat":68.88333
  },
  {
    "iata":"YBC",
    "name":"Baie Comeau Airport",
    "lon":-68.26667,
    "lat":49.2
  },
  {
    "iata":"QBC",
    "name":"Bella Coola Airport",
    "lon":-126.666664,
    "lat":52.333332
  },
  {
    "iata":"YBE",
    "name":"Uranium City Airport",
    "lon":-108.48333,
    "lat":59.566666
  },
  {
    "iata":"YBY",
    "name":"Bonnyville Airport",
    "lon":-110.73333,
    "lat":54.266666
  },
  {
    "iata":"YBG",
    "name":"CFB Bagotville",
    "lon":-70.98861,
    "lat":48.322224
  },
  {
    "iata":"YBK",
    "name":"Baker Lake Airport",
    "lon":-96.083336,
    "lat":64.3
  },
  {
    "iata":"YBL",
    "name":"Campbell River Airport",
    "lon":-125.26813,
    "lat":49.951725
  },
  {
    "iata":"XTL",
    "name":"Tadoule Lake Airport",
    "lon":-98.51344,
    "lat":58.707954
  },
  {
    "iata":"YBR",
    "name":"Brandon Municipal Airport",
    "lon":-99.94677,
    "lat":49.908688
  },
  {
    "iata":"YBT",
    "name":"Brochet Airport",
    "lon":-101.67899,
    "lat":57.88847
  },
  {
    "iata":"YBV",
    "name":"Berens River Airport",
    "lon":-97.02141,
    "lat":52.358696
  },
  {
    "iata":"YBX",
    "name":"Lourdes de Blanc Sablon Airport",
    "lon":-57.216667,
    "lat":51.433334
  },
  {
    "iata":"YRF",
    "name":"Cartwright Airport",
    "lon":-57.03828,
    "lat":53.682606
  },
  {
    "iata":"YCB",
    "name":"Cambridge Bay Airport",
    "lon":-105.13333,
    "lat":69.1
  },
  {
    "iata":"YCC",
    "name":"Cornwall Regional Airport",
    "lon":-74.566666,
    "lat":45.1
  },
  {
    "iata":"YCD",
    "name":"Nanaimo Airport",
    "lon":-123.86667,
    "lat":49.05
  },
  {
    "iata":"YCE",
    "name":"James T. Field Memorial Aerodrome",
    "lon":-81.48333,
    "lat":43.283333
  },
  {
    "iata":"YCG",
    "name":"Castlegar/West Kootenay Regional Airport",
    "lon":-117.632225,
    "lat":49.295555
  },
  {
    "iata":"YCH",
    "name":"Miramichi Airport",
    "lon":-65.44744,
    "lat":47.014008
  },
  {
    "iata":"YCL",
    "name":"Charlo Airport",
    "lon":-66.32881,
    "lat":47.99093
  },
  {
    "iata":"YCN",
    "name":"Cochrane Airport",
    "lon":-81.01289,
    "lat":49.106018
  },
  {
    "iata":"YCO",
    "name":"Kugluktuk Airport",
    "lon":-115.083336,
    "lat":67.833336
  },
  {
    "iata":"YCQ",
    "name":"Chetwynd Airport",
    "lon":-121.63333,
    "lat":55.683334
  },
  {
    "iata":"YCR",
    "name":"Cross Lake (Charlie Sinclair Memorial) Airport",
    "lon":-97.75144,
    "lat":54.61306
  },
  {
    "iata":"YCS",
    "name":"Chesterfield Inlet Airport",
    "lon":-90.71667,
    "lat":63.333332
  },
  {
    "iata":"YCY",
    "name":"Clyde River Airport",
    "lon":-68.5,
    "lat":70.416664
  },
  {
    "iata":"YCZ",
    "name":"Fairmont Hot Springs Airport",
    "lon":-115.87361,
    "lat":50.331944
  },
  {
    "iata":"YDA",
    "name":"Dawson City Airport",
    "lon":-139.12083,
    "lat":64.041664
  },
  {
    "iata":"YDB",
    "name":"Burwash Airport",
    "lon":-139.01666,
    "lat":61.35
  },
  {
    "iata":"YDF",
    "name":"Deer Lake Airport",
    "lon":-57.399727,
    "lat":49.21027
  },
  {
    "iata":"YDM",
    "name":"Ross River Airport",
    "lon":138.8216,
    "lat":-17.939201
  },
  {
    "iata":"YDN",
    "name":"Dauphin Barker Airport",
    "lon":-100.05,
    "lat":51.1
  },
  {
    "iata":"YDO",
    "name":"Dolbeau St Felicien Airport",
    "lon":-72.23333,
    "lat":48.86667
  },
  {
    "iata":"YDP",
    "name":"Nain Airport",
    "lon":-61.666668,
    "lat":56.533333
  },
  {
    "iata":"YDQ",
    "name":"Dawson Creek Airport",
    "lon":-120.183334,
    "lat":55.733334
  },
  {
    "iata":"YEG",
    "name":"Edmonton International Airport",
    "lon":-113.584045,
    "lat":53.307377
  },
  {
    "iata":"YEK",
    "name":"Arviat Airport",
    "lon":-94.05,
    "lat":61.11667
  },
  {
    "iata":"YEL",
    "name":"Elliot Lake Municipal Airport",
    "lon":-82.56306,
    "lat":46.352222
  },
  {
    "iata":"YEM",
    "name":"Manitoulin East Municipal Airport",
    "lon":-81.858055,
    "lat":45.842777
  },
  {
    "iata":"YEN",
    "name":"Estevan Airport",
    "lon":-102.96282,
    "lat":49.207542
  },
  {
    "iata":"YER",
    "name":"Fort Severn Airport",
    "lon":-87.833336,
    "lat":56.033333
  },
  {
    "iata":"YET",
    "name":"Edson Airport",
    "lon":-116.46667,
    "lat":53.583332
  },
  {
    "iata":"YEU",
    "name":"Eureka Airport",
    "lon":-85.933334,
    "lat":80
  },
  {
    "iata":"YEV",
    "name":"Inuvik Mike Zubko Airport",
    "lon":-133.49767,
    "lat":68.30665
  },
  {
    "iata":"YEY",
    "name":"Amos Magny Airport",
    "lon":-78.25,
    "lat":48.552223
  },
  {
    "iata":"YFA",
    "name":"Fort Albany Airport",
    "lon":-81.59167,
    "lat":52.24167
  },
  {
    "iata":"YFB",
    "name":"Iqaluit Airport",
    "lon":-68.53658,
    "lat":63.75175
  },
  {
    "iata":"YFC",
    "name":"Fredericton Airport",
    "lon":-66.52978,
    "lat":45.87316
  },
  {
    "iata":"YFE",
    "name":"Forestville Airport",
    "lon":-69.066666,
    "lat":48.75
  },
  {
    "iata":"YFH",
    "name":"Fort Hope Airport",
    "lon":-87.89796,
    "lat":51.559345
  },
  {
    "iata":"YTM",
    "name":"La Macaza / Mont-Tremblant International Inc Airport",
    "lon":-74.75528,
    "lat":46.515556
  },
  {
    "iata":"YFO",
    "name":"Flin Flon Airport",
    "lon":-101.683334,
    "lat":54.683334
  },
  {
    "iata":"YFR",
    "name":"Fort Resolution Airport",
    "lon":-113.683334,
    "lat":61.183334
  },
  {
    "iata":"YFS",
    "name":"Fort Simpson Airport",
    "lon":-121.23333,
    "lat":61.75
  },
  {
    "iata":"YMN",
    "name":"Makkovik Airport",
    "lon":-59.166668,
    "lat":55.166668
  },
  {
    "iata":"YGB",
    "name":"Texada Gillies Bay Airport",
    "lon":-124.53333,
    "lat":49.7
  },
  {
    "iata":"YGD",
    "name":"Goderich Airport",
    "lon":null,
    "lat":null
  },
  {
    "iata":"YGH",
    "name":"Fort Good Hope Airport",
    "lon":-128.65,
    "lat":66.26667
  },
  {
    "iata":"YGK",
    "name":"Kingston Norman Rogers Airport",
    "lon":-76.59366,
    "lat":44.219513
  },
  {
    "iata":"YGL",
    "name":"",
    "lon":-77.70639,
    "lat":53.629723
  },
  {
    "iata":"YGM",
    "name":"Gimli Industrial Park Airport",
    "lon":-97,
    "lat":50.666668
  },
  {
    "iata":"YGO",
    "name":"Gods Lake Narrows Airport",
    "lon":-94.49117,
    "lat":54.5577
  },
  {
    "iata":"YGP",
    "name":"",
    "lon":-64.48333,
    "lat":48.766666
  },
  {
    "iata":"YGQ",
    "name":"Geraldton Greenstone Regional Airport",
    "lon":-86.93593,
    "lat":49.779892
  },
  {
    "iata":"YGR",
    "name":"",
    "lon":-61.9,
    "lat":47.36667
  },
  {
    "iata":"YGT",
    "name":"Igloolik Airport",
    "lon":-81.816666,
    "lat":69.4
  },
  {
    "iata":"YGV",
    "name":"Havre St Pierre Airport",
    "lon":-63.583332,
    "lat":50.25
  },
  {
    "iata":"YGW",
    "name":"Kuujjuarapik Airport",
    "lon":-77.76667,
    "lat":55.279167
  },
  {
    "iata":"YGX",
    "name":"Gillam Airport",
    "lon":-94.7,
    "lat":56.35
  },
  {
    "iata":"YGZ",
    "name":"Grise Fiord Airport",
    "lon":-82.95722,
    "lat":76.41778
  },
  {
    "iata":"YQC",
    "name":"Quaqtaq Airport",
    "lon":-69.63333,
    "lat":61.333332
  },
  {
    "iata":"YHD",
    "name":"Dryden Regional Airport",
    "lon":-92.833336,
    "lat":49.783333
  },
  {
    "iata":"YHE",
    "name":"Hope Airport",
    "lon":-121.416664,
    "lat":49.416668
  },
  {
    "iata":"YHF",
    "name":"",
    "lon":-83.683334,
    "lat":49.716667
  },
  {
    "iata":"YNS",
    "name":"Nemiscau Airport",
    "lon":-76.74167,
    "lat":49.74167
  },
  {
    "iata":"YHI",
    "name":"Ulukhaktok Holman Airport",
    "lon":-117.71667,
    "lat":70.71667
  },
  {
    "iata":"YHK",
    "name":"Gjoa Haven Airport",
    "lon":-95.95,
    "lat":68.63333
  },
  {
    "iata":"YHM",
    "name":"John C. Munro Hamilton International Airport",
    "lon":-79.92631,
    "lat":43.16138
  },
  {
    "iata":"YHN",
    "name":"Hornepayne Municipal Airport",
    "lon":-84.78333,
    "lat":49.216667
  },
  {
    "iata":"YHO",
    "name":"Hopedale Airport",
    "lon":-60.229443,
    "lat":55.448334
  },
  {
    "iata":"YHR",
    "name":"Chevery Airport",
    "lon":-59.5,
    "lat":50.5
  },
  {
    "iata":"YHT",
    "name":"Haines Junction Airport",
    "lon":-137.5,
    "lat":60.75
  },
  {
    "iata":"YHU",
    "name":"",
    "lon":-73.6,
    "lat":45.5
  },
  {
    "iata":"YHY",
    "name":"Hay River / Merlyn Carter Airport",
    "lon":-115.778336,
    "lat":60.845554
  },
  {
    "iata":"YHZ",
    "name":"Halifax / Stanfield International Airport",
    "lon":-63.51425,
    "lat":44.88496
  },
  {
    "iata":"YIB",
    "name":"Atikokan Municipal Airport",
    "lon":-91.61667,
    "lat":48.75
  },
  {
    "iata":"YDG",
    "name":"Digby / Annapolis Regional Airport",
    "lon":-65.76667,
    "lat":44.61667
  },
  {
    "iata":"YIF",
    "name":"St Augustin Airport",
    "lon":-58.666668,
    "lat":51.216667
  },
  {
    "iata":"YIK",
    "name":"Ivujivik Airport",
    "lon":-76.083336,
    "lat":62.416668
  },
  {
    "iata":"YIO",
    "name":"Pond Inlet Airport",
    "lon":-78,
    "lat":72.683334
  },
  {
    "iata":"YIV",
    "name":"Island Lake Airport",
    "lon":-94.653046,
    "lat":53.856785
  },
  {
    "iata":"YJF",
    "name":"Fort Liard Airport",
    "lon":-123.46667,
    "lat":60.25
  },
  {
    "iata":"YJN",
    "name":"St Jean Airport",
    "lon":-73.333336,
    "lat":45.333332
  },
  {
    "iata":"YJT",
    "name":"Stephenville Airport",
    "lon":-58.55,
    "lat":48.533333
  },
  {
    "iata":"YKA",
    "name":"Kamloops Airport",
    "lon":-120.442024,
    "lat":50.70545
  },
  {
    "iata":"LAK",
    "name":"Aklavik Airport",
    "lon":-134.98584,
    "lat":68.22222
  },
  {
    "iata":"YKF",
    "name":"Waterloo Airport",
    "lon":-80.385056,
    "lat":43.458977
  },
  {
    "iata":"YKJ",
    "name":"Key Lake Airport",
    "lon":-105.61864,
    "lat":57.256287
  },
  {
    "iata":"YKL",
    "name":"Schefferville Airport",
    "lon":-64.816666,
    "lat":54.783333
  },
  {
    "iata":"AKV",
    "name":"Akulivik Airport",
    "lon":-78.583336,
    "lat":60.733334
  },
  {
    "iata":"YKQ",
    "name":"Waskaganish Airport",
    "lon":-78.75,
    "lat":51.4875
  },
  {
    "iata":"YKX",
    "name":"Kirkland Lake Airport",
    "lon":-80.03333,
    "lat":48.15
  },
  {
    "iata":"YKY",
    "name":"Kindersley Airport",
    "lon":-109.17811,
    "lat":51.517605
  },
  {
    "iata":"YKZ",
    "name":"Buttonville Municipal Airport",
    "lon":-79.36774,
    "lat":43.86131
  },
  {
    "iata":"YPJ",
    "name":"Aupaluk Airport",
    "lon":-69.666664,
    "lat":59.3
  },
  {
    "iata":"YLC",
    "name":"Kimmirut Airport",
    "lon":-69.88333,
    "lat":62.85
  },
  {
    "iata":"YLD",
    "name":"Chapleau Airport",
    "lon":-83.352776,
    "lat":47.819443
  },
  {
    "iata":"YLH",
    "name":"Lansdowne House Airport",
    "lon":-87.93,
    "lat":52.183334
  },
  {
    "iata":"YLJ",
    "name":"Meadow Lake Airport",
    "lon":-108.666664,
    "lat":54.5
  },
  {
    "iata":"YSG",
    "name":"Lutselk'e Airport",
    "lon":-110.075554,
    "lat":62.41861
  },
  {
    "iata":"YLL",
    "name":"Lloydminster Airport",
    "lon":-110.072716,
    "lat":53.31297
  },
  {
    "iata":"YLR",
    "name":"Leaf Rapids Airport",
    "lon":-100.03333,
    "lat":56.5
  },
  {
    "iata":"YLT",
    "name":"Alert Airport",
    "lon":-62.283333,
    "lat":82.51667
  },
  {
    "iata":"XGR",
    "name":"Kangiqsualujjuaq (Georges River) Airport",
    "lon":-65.98333,
    "lat":58.5
  },
  {
    "iata":"YLW",
    "name":"Kelowna Airport",
    "lon":-119.38139,
    "lat":49.95154
  },
  {
    "iata":"YMA",
    "name":"Mayo Airport",
    "lon":-135.87361,
    "lat":63.61639
  },
  {
    "iata":"YME",
    "name":"Matane Airport",
    "lon":-67.51667,
    "lat":48.833332
  },
  {
    "iata":"YMG",
    "name":"Manitouwadge Airport",
    "lon":-85.86667,
    "lat":49.083332
  },
  {
    "iata":"YMH",
    "name":"Mary's Harbour Airport",
    "lon":-55.833332,
    "lat":52.3
  },
  {
    "iata":"YMJ",
    "name":"Moose Jaw Air Vice Marshal C. M. McEwen Airport",
    "lon":-105.53333,
    "lat":50.38333
  },
  {
    "iata":"YML",
    "name":"Charlevoix Airport",
    "lon":-70.166664,
    "lat":47.65
  },
  {
    "iata":"YMM",
    "name":"Fort McMurray Airport",
    "lon":-111.22395,
    "lat":56.65659
  },
  {
    "iata":"YMO",
    "name":"Moosonee Airport",
    "lon":-80.604164,
    "lat":51.29111
  },
  {
    "iata":"YMT",
    "name":"Chapais Airport",
    "lon":-74.36667,
    "lat":49.916668
  },
  {
    "iata":"YUD",
    "name":"Umiujaq Airport",
    "lon":-76.51833,
    "lat":56.53611
  },
  {
    "iata":"YMX",
    "name":"Montreal International (Mirabel) Airport",
    "lon":-74.03,
    "lat":45.666668
  },
  {
    "iata":"YNA",
    "name":"Natashquan Airport",
    "lon":-61.8,
    "lat":50.183334
  },
  {
    "iata":"YNC",
    "name":"Wemindji Airport",
    "lon":-78.816666,
    "lat":53
  },
  {
    "iata":"YND",
    "name":"Ottawa / Gatineau Airport",
    "lon":-75.56283,
    "lat":45.52063
  },
  {
    "iata":"YNE",
    "name":"Norway House Airport",
    "lon":-97.84583,
    "lat":53.954166
  },
  {
    "iata":"YNL",
    "name":"Points North Landing Airport",
    "lon":-104.08111,
    "lat":58.275
  },
  {
    "iata":"YNM",
    "name":"Matagami Airport",
    "lon":-77.8,
    "lat":49.75
  },
  {
    "iata":"YNN",
    "name":"Nejanilini Lake Airport",
    "lon":119.23333,
    "lat":-22.766666
  },
  {
    "iata":"HZP",
    "name":"Fort Mackay / Horizon Airport",
    "lon":-111.70111,
    "lat":57.381668
  },
  {
    "iata":"YOA",
    "name":"Ekati Airport",
    "lon":-110.61444,
    "lat":64.69945
  },
  {
    "iata":"YOC",
    "name":"Old Crow Airport",
    "lon":-139.83333,
    "lat":67.583336
  },
  {
    "iata":"YOD",
    "name":"CFB Cold Lake",
    "lon":-110.25,
    "lat":54.466667
  },
  {
    "iata":"YOH",
    "name":"Oxford House Airport",
    "lon":-95.27668,
    "lat":54.934242
  },
  {
    "iata":"YOJ",
    "name":"High Level Airport",
    "lon":-117.168335,
    "lat":58.618332
  },
  {
    "iata":"YOO",
    "name":"Oshawa Airport",
    "lon":-78.9,
    "lat":43.916668
  },
  {
    "iata":"YOP",
    "name":"Rainbow Lake Airport",
    "lon":-119.4,
    "lat":58.5
  },
  {
    "iata":"YOS",
    "name":"Owen Sound / Billy Bishop Regional Airport",
    "lon":-80.8375,
    "lat":44.59028
  },
  {
    "iata":"YOW",
    "name":"Ottawa Macdonald-Cartier International Airport",
    "lon":-75.672775,
    "lat":45.32083
  },
  {
    "iata":"YPA",
    "name":"Prince Albert Glass Field",
    "lon":-105.683334,
    "lat":53.216667
  },
  {
    "iata":"YPC",
    "name":"Paulatuk (Nora Aliqatchialuk Ruben) Airport",
    "lon":-124.07468,
    "lat":69.35514
  },
  {
    "iata":"YPS",
    "name":"Port Hawkesbury Airport",
    "lon":-61.35,
    "lat":45.61667
  },
  {
    "iata":"YPE",
    "name":"Peace River Airport",
    "lon":-117.44028,
    "lat":56.22778
  },
  {
    "iata":"YPG",
    "name":"Southport Airport",
    "lon":-98.3,
    "lat":49.966667
  },
  {
    "iata":"YPH",
    "name":"Inukjuak Airport",
    "lon":-78.166664,
    "lat":58.433334
  },
  {
    "iata":"YPL",
    "name":"Pickle Lake Airport",
    "lon":-90.208336,
    "lat":51.208332
  },
  {
    "iata":"YPM",
    "name":"Pikangikum Airport",
    "lon":-93.97287,
    "lat":51.817375
  },
  {
    "iata":"YPN",
    "name":"Port Menier Airport",
    "lon":-64.28831,
    "lat":49.836533
  },
  {
    "iata":"YPO",
    "name":"Peawanuck Airport",
    "lon":-85.433334,
    "lat":54.983334
  },
  {
    "iata":"YPQ",
    "name":"Peterborough Airport",
    "lon":-78.316666,
    "lat":44.3
  },
  {
    "iata":"YPR",
    "name":"Prince Rupert Airport",
    "lon":-130.44083,
    "lat":54.287224
  },
  {
    "iata":"YPW",
    "name":"Powell River Airport",
    "lon":-124.5,
    "lat":49.816666
  },
  {
    "iata":"YPX",
    "name":"Puvirnituq Airport",
    "lon":-77.166664,
    "lat":60.033333
  },
  {
    "iata":"YPY",
    "name":"Fort Chipewyan Airport",
    "lon":-111.11406,
    "lat":58.76799
  },
  {
    "iata":"YQA",
    "name":"Muskoka Airport",
    "lon":-79.3,
    "lat":44.966667
  },
  {
    "iata":"YQB",
    "name":"Quebec Jean Lesage International Airport",
    "lon":-71.383385,
    "lat":46.792038
  },
  {
    "iata":"YQD",
    "name":"The Pas Airport",
    "lon":-101.1,
    "lat":53.966667
  },
  {
    "iata":"YQF",
    "name":"Red Deer Regional Airport",
    "lon":-113.89333,
    "lat":52.176945
  },
  {
    "iata":"YQG",
    "name":"Windsor Airport",
    "lon":-82.96389,
    "lat":42.274166
  },
  {
    "iata":"YQH",
    "name":"Watson Lake Airport",
    "lon":-128.825,
    "lat":60.12361
  },
  {
    "iata":"YQI",
    "name":"Yarmouth Airport",
    "lon":-66.083336,
    "lat":43.833332
  },
  {
    "iata":"YQK",
    "name":"Kenora Airport",
    "lon":-94.35833,
    "lat":49.7875
  },
  {
    "iata":"YQL",
    "name":"Lethbridge County Airport",
    "lon":-112.791664,
    "lat":49.631943
  },
  {
    "iata":"YQM",
    "name":"Greater Moncton International Airport",
    "lon":-64.68123,
    "lat":46.104774
  },
  {
    "iata":"YQN",
    "name":"Nakina Airport",
    "lon":-86.7,
    "lat":50.166668
  },
  {
    "iata":"YQQ",
    "name":"Comox Airport",
    "lon":-124.907814,
    "lat":49.705864
  },
  {
    "iata":"YQR",
    "name":"Regina International Airport",
    "lon":-104.65519,
    "lat":50.433327
  },
  {
    "iata":"YQS",
    "name":"St Thomas Municipal Airport",
    "lon":-81.2,
    "lat":42.783333
  },
  {
    "iata":"YQT",
    "name":"Thunder Bay Airport",
    "lon":-89.31167,
    "lat":48.37184
  },
  {
    "iata":"YQU",
    "name":"Grande Prairie Airport",
    "lon":-118.873604,
    "lat":55.177074
  },
  {
    "iata":"YQV",
    "name":"Yorkton Municipal Airport",
    "lon":-102.45935,
    "lat":51.264095
  },
  {
    "iata":"YQW",
    "name":"North Battleford Airport",
    "lon":-108.25,
    "lat":52.766666
  },
  {
    "iata":"YQX",
    "name":"Gander International Airport",
    "lon":-54.56333,
    "lat":48.946667
  },
  {
    "iata":"YQY",
    "name":"Sydney / J.A. Douglas McCurdy Airport",
    "lon":-60.05,
    "lat":46.166668
  },
  {
    "iata":"YQZ",
    "name":"Quesnel Airport",
    "lon":-122.50972,
    "lat":53.02667
  },
  {
    "iata":"YRA",
    "name":"Rae Lakes Airport",
    "lon":-117.35,
    "lat":64.11667
  },
  {
    "iata":"YRB",
    "name":"Resolute Bay Airport",
    "lon":-94.96667,
    "lat":74.71667
  },
  {
    "iata":"YRI",
    "name":"",
    "lon":-69.53333,
    "lat":47.833332
  },
  {
    "iata":"YRJ",
    "name":"Roberval Airport",
    "lon":-72.26733,
    "lat":48.522343
  },
  {
    "iata":"YRL",
    "name":"Red Lake Airport",
    "lon":-93.80006,
    "lat":51.068764
  },
  {
    "iata":"YRO",
    "name":"Ottawa / Rockcliffe Airport",
    "lon":-75.76459,
    "lat":45.4592
  },
  {
    "iata":"YRP",
    "name":"Ottawa / Carp Airport",
    "lon":null,
    "lat":null
  },
  {
    "iata":"YRQ",
    "name":"",
    "lon":-72.683334,
    "lat":46.35
  },
  {
    "iata":"YRS",
    "name":"Red Sucker Lake Airport",
    "lon":-93.55762,
    "lat":54.16757
  },
  {
    "iata":"YRT",
    "name":"Rankin Inlet Airport",
    "lon":-92.10019,
    "lat":62.80998
  },
  {
    "iata":"YRV",
    "name":"Revelstoke Airport",
    "lon":-118.166664,
    "lat":51
  },
  {
    "iata":"YSB",
    "name":"Sudbury Airport",
    "lon":-80.79592,
    "lat":46.62296
  },
  {
    "iata":"YSC",
    "name":"Sherbrooke Airport",
    "lon":-71.9,
    "lat":45.416668
  },
  {
    "iata":"YSF",
    "name":"Stony Rapids Airport",
    "lon":-105.83657,
    "lat":59.251163
  },
  {
    "iata":"YSH",
    "name":"Smiths Falls-Montague (Russ Beach) Airport",
    "lon":-75.93959,
    "lat":44.94829
  },
  {
    "iata":"YSJ",
    "name":"Saint John Airport",
    "lon":-65.8902,
    "lat":45.32948
  },
  {
    "iata":"YSK",
    "name":"Sanikiluaq Airport",
    "lon":-79.21667,
    "lat":56.55
  },
  {
    "iata":"YSL",
    "name":"St Leonard Airport",
    "lon":-67.9,
    "lat":47.183334
  },
  {
    "iata":"YSM",
    "name":"Fort Smith Airport",
    "lon":-111.96667,
    "lat":60.016666
  },
  {
    "iata":"YCM",
    "name":"Niagara District Airport",
    "lon":-79.166664,
    "lat":43.2
  },
  {
    "iata":"YSP",
    "name":"Marathon Airport",
    "lon":-86.35,
    "lat":48.75
  },
  {
    "iata":"YST",
    "name":"St. Theresa Point Airport",
    "lon":-94.8516,
    "lat":53.846127
  },
  {
    "iata":"YSU",
    "name":"Summerside Airport",
    "lon":-57.983334,
    "lat":49
  },
  {
    "iata":"YSY",
    "name":"Sachs Harbour (David Nasogaluak Jr. Saaryuaq) Airport",
    "lon":-125.24104,
    "lat":71.99145
  },
  {
    "iata":"YTA",
    "name":"Pembroke Airport",
    "lon":-77.24944,
    "lat":45.861668
  },
  {
    "iata":"YTE",
    "name":"Cape Dorset Airport",
    "lon":-76.53333,
    "lat":64.23333
  },
  {
    "iata":"YTF",
    "name":"Alma Airport",
    "lon":-71.642715,
    "lat":48.509655
  },
  {
    "iata":"YTH",
    "name":"Thompson Airport",
    "lon":-97.8605,
    "lat":55.79753
  },
  {
    "iata":"YTL",
    "name":"Big Trout Lake Airport",
    "lon":-89.88952,
    "lat":53.81594
  },
  {
    "iata":"YTQ",
    "name":"Tasiujaq Airport",
    "lon":-69.95633,
    "lat":58.6678
  },
  {
    "iata":"YTR",
    "name":"CFB Trenton",
    "lon":-77.583336,
    "lat":44.1
  },
  {
    "iata":"YTS",
    "name":"Timmins/Victor M. Power",
    "lon":-81.37164,
    "lat":48.566372
  },
  {
    "iata":"YTZ",
    "name":"Billy Bishop Toronto City Centre Airport",
    "lon":-79.39585,
    "lat":43.632023
  },
  {
    "iata":"YUB",
    "name":"Tuktoyaktuk Airport",
    "lon":-133.025,
    "lat":69.436386
  },
  {
    "iata":"YUL",
    "name":"Montreal / Pierre Elliott Trudeau International Airport",
    "lon":-73.74991,
    "lat":45.457714
  },
  {
    "iata":"YUT",
    "name":"Repulse Bay Airport",
    "lon":-86.25,
    "lat":66.53333
  },
  {
    "iata":"YUX",
    "name":"Hall Beach Airport",
    "lon":-81.25,
    "lat":68.78333
  },
  {
    "iata":"YUY",
    "name":"Rouyn Noranda Airport",
    "lon":-78.83056,
    "lat":48.205555
  },
  {
    "iata":"YVB",
    "name":"Bonaventure Airport",
    "lon":-65.45808,
    "lat":48.069084
  },
  {
    "iata":"YVC",
    "name":"La Ronge Airport",
    "lon":-105.26066,
    "lat":55.15126
  },
  {
    "iata":"YVD",
    "name":"Virden/R.J. (Bob) Andrew Field Regional Aerodrome",
    "lon":146.18889,
    "lat":-7.55
  },
  {
    "iata":"YVE",
    "name":"Vernon Airport",
    "lon":-119.333336,
    "lat":50.25
  },
  {
    "iata":"YVM",
    "name":"Qikiqtarjuaq Airport",
    "lon":-63.833332,
    "lat":67.583336
  },
  {
    "iata":"YVO",
    "name":"Val-d'Or Airport",
    "lon":-77.78858,
    "lat":48.052605
  },
  {
    "iata":"YVP",
    "name":"Kuujjuaq Airport",
    "lon":-68.41798,
    "lat":58.10024
  },
  {
    "iata":"YVQ",
    "name":"Norman Wells Airport",
    "lon":-126.79337,
    "lat":65.277855
  },
  {
    "iata":"YVR",
    "name":"Vancouver International Airport",
    "lon":-123.17919,
    "lat":49.1947
  },
  {
    "iata":"YVT",
    "name":"Buffalo Narrows Airport",
    "lon":-108.46667,
    "lat":55.86667
  },
  {
    "iata":"YVV",
    "name":"Wiarton Airport",
    "lon":-81.166664,
    "lat":44.666668
  },
  {
    "iata":"YVZ",
    "name":"Deer Lake Airport",
    "lon":-94.5,
    "lat":52.666668
  },
  {
    "iata":"YWA",
    "name":"Petawawa Airport",
    "lon":-77.28333,
    "lat":45.9
  },
  {
    "iata":"YWG",
    "name":"Winnipeg / James Armstrong Richardson International Airport",
    "lon":-97.23333,
    "lat":49.9
  },
  {
    "iata":"YWJ",
    "name":"",
    "lon":-123.5,
    "lat":65.166664
  },
  {
    "iata":"YWK",
    "name":"Wabush Airport",
    "lon":-66.874,
    "lat":52.926315
  },
  {
    "iata":"YWL",
    "name":"Williams Lake Airport",
    "lon":-122.04444,
    "lat":52.184723
  },
  {
    "iata":"YWP",
    "name":"Webequie Airport",
    "lon":-87.36889,
    "lat":52.95972
  },
  {
    "iata":"YWY",
    "name":"Wrigley Airport",
    "lon":-123.438614,
    "lat":63.210556
  },
  {
    "iata":"YXC",
    "name":"Cranbrook Airport",
    "lon":-115.787025,
    "lat":49.61437
  },
  {
    "iata":"YXD",
    "name":"Edmonton City Centre (Blatchford Field) Airport",
    "lon":-113.51667,
    "lat":53.566666
  },
  {
    "iata":"YXE",
    "name":"Saskatoon John G. Diefenbaker International Airport",
    "lon":-106.69037,
    "lat":52.169704
  },
  {
    "iata":"YXH",
    "name":"Medicine Hat Airport",
    "lon":-110.72083,
    "lat":50.015835
  },
  {
    "iata":"YXJ",
    "name":"Fort St John Airport",
    "lon":-120.73437,
    "lat":56.247883
  },
  {
    "iata":"YXK",
    "name":"Rimouski Airport",
    "lon":-68.55,
    "lat":48.433334
  },
  {
    "iata":"YXL",
    "name":"Sioux Lookout Airport",
    "lon":-91.903,
    "lat":50.115208
  },
  {
    "iata":"YXN",
    "name":"Whale Cove Airport",
    "lon":-92.6,
    "lat":62.233334
  },
  {
    "iata":"YXP",
    "name":"Pangnirtung Airport",
    "lon":-65.73333,
    "lat":66.13333
  },
  {
    "iata":"YXQ",
    "name":"Beaver Creek Airport",
    "lon":-141,
    "lat":62
  },
  {
    "iata":"YXR",
    "name":"Earlton (Timiskaming Regional) Airport",
    "lon":-79.851944,
    "lat":47.697224
  },
  {
    "iata":"YXS",
    "name":"Prince George Airport",
    "lon":-122.67396,
    "lat":53.88381
  },
  {
    "iata":"YXT",
    "name":"Terrace Airport",
    "lon":-128.57445,
    "lat":54.465557
  },
  {
    "iata":"YXU",
    "name":"London Airport",
    "lon":-81.14965,
    "lat":43.02802
  },
  {
    "iata":"YXX",
    "name":"Abbotsford Airport",
    "lon":-122.361946,
    "lat":49.025555
  },
  {
    "iata":"YXY",
    "name":"Whitehorse / Erik Nielsen International Airport",
    "lon":-135.06667,
    "lat":60.716667
  },
  {
    "iata":"YXZ",
    "name":"Wawa Airport",
    "lon":-84.785835,
    "lat":47.9625
  },
  {
    "iata":"YYB",
    "name":"North Bay Airport",
    "lon":-79.42725,
    "lat":46.356823
  },
  {
    "iata":"YYC",
    "name":"Calgary International Airport",
    "lon":-114.01055,
    "lat":51.131393
  },
  {
    "iata":"YYD",
    "name":"Smithers Airport",
    "lon":-127.180275,
    "lat":54.825558
  },
  {
    "iata":"YYE",
    "name":"Fort Nelson Airport",
    "lon":-122.583336,
    "lat":58.833332
  },
  {
    "iata":"YYF",
    "name":"Penticton Airport",
    "lon":-119.6,
    "lat":49.46472
  },
  {
    "iata":"YYG",
    "name":"Charlottetown Airport",
    "lon":-63.131737,
    "lat":46.285896
  },
  {
    "iata":"YYH",
    "name":"Taloyoak Airport",
    "lon":-93.51667,
    "lat":69.53333
  },
  {
    "iata":"YYJ",
    "name":"Victoria International Airport",
    "lon":-123.43096,
    "lat":48.640266
  },
  {
    "iata":"YYL",
    "name":"Lynn Lake Airport",
    "lon":-101.066666,
    "lat":56.86667
  },
  {
    "iata":"YYN",
    "name":"Swift Current Airport",
    "lon":-107.833336,
    "lat":50.283333
  },
  {
    "iata":"YYQ",
    "name":"Churchill Airport",
    "lon":-94.07449,
    "lat":58.74819
  },
  {
    "iata":"YYR",
    "name":"Goose Bay Airport",
    "lon":-60.4124,
    "lat":53.313534
  },
  {
    "iata":"YYT",
    "name":"St Johns International Airport",
    "lon":-52.74334,
    "lat":47.61282
  },
  {
    "iata":"YYU",
    "name":"Kapuskasing Airport",
    "lon":-82.47083,
    "lat":49.4125
  },
  {
    "iata":"YYW",
    "name":"Armstrong Airport",
    "lon":-88.91173,
    "lat":50.29431
  },
  {
    "iata":"YYY",
    "name":"Mont Joli Airport",
    "lon":-68.2,
    "lat":48.6
  },
  {
    "iata":"YYZ",
    "name":"Lester B. Pearson International Airport",
    "lon":-79.61146,
    "lat":43.681583
  },
  {
    "iata":"YZD",
    "name":"Downsview Airport",
    "lon":-79.46555,
    "lat":43.74278
  },
  {
    "iata":"YZE",
    "name":"Gore Bay Manitoulin Airport",
    "lon":-82.56778,
    "lat":45.885277
  },
  {
    "iata":"YZF",
    "name":"Yellowknife Airport",
    "lon":-114.4375,
    "lat":62.470867
  },
  {
    "iata":"YZG",
    "name":"Salluit Airport",
    "lon":-75.63333,
    "lat":62.2
  },
  {
    "iata":"YZH",
    "name":"Slave Lake Airport",
    "lon":-114.78333,
    "lat":55.3
  },
  {
    "iata":"YZP",
    "name":"Sandspit Airport",
    "lon":-131.81277,
    "lat":53.254444
  },
  {
    "iata":"YZR",
    "name":"Chris Hadfield Airport",
    "lon":-82.31111,
    "lat":42.997223
  },
  {
    "iata":"YZS",
    "name":"Coral Harbour Airport",
    "lon":-83.36667,
    "lat":64.2
  },
  {
    "iata":"YZT",
    "name":"Port Hardy Airport",
    "lon":-127.36389,
    "lat":50.680557
  },
  {
    "iata":"YZU",
    "name":"Whitecourt Airport",
    "lon":-115.78333,
    "lat":54.15
  },
  {
    "iata":"YZV",
    "name":"",
    "lon":-66.26404,
    "lat":50.21751
  },
  {
    "iata":"YZW",
    "name":"Teslin Airport",
    "lon":-132.71666,
    "lat":60.166668
  },
  {
    "iata":"YZX",
    "name":"CFB Greenwood",
    "lon":-118.666664,
    "lat":49.166668
  },
  {
    "iata":"YZY",
    "name":"Mackenzie Airport",
    "lon":100.660835,
    "lat":38.8075
  },
  {
    "iata":"ZAC",
    "name":"York Landing Airport",
    "lon":-96.09192,
    "lat":56.089516
  },
  {
    "iata":"YSN",
    "name":"Salmon Arm Airport",
    "lon":-119.23333,
    "lat":50.683334
  },
  {
    "iata":"YDT",
    "name":"Burlington Executive",
    "lon":-123.183334,
    "lat":49.183334
  },
  {
    "iata":"ZBD",
    "name":"Boundary Bay Airport",
    "lon":null,
    "lat":null
  },
  {
    "iata":"ZBF",
    "name":"Ilford Airport",
    "lon":-65.73944,
    "lat":47.629166
  },
  {
    "iata":"ZBF",
    "name":"Bathurst Airport",
    "lon":-65.73944,
    "lat":47.629166
  },
  {
    "iata":"ZBM",
    "name":"Bromont Airport",
    "lon":-72.833336,
    "lat":45.316666
  },
  {
    "iata":"ZEE",
    "name":"Kelsey Airport",
    "lon":null,
    "lat":null
  },
  {
    "iata":"ZEM",
    "name":"Eastmain River Airport",
    "lon":-78.51667,
    "lat":52.25
  },
  {
    "iata":"ZFA",
    "name":"Faro Airport",
    "lon":-133.36667,
    "lat":63.216667
  },
  {
    "iata":"ZFD",
    "name":"Fond-Du-Lac Airport",
    "lon":-107.18119,
    "lat":59.33421
  },
  {
    "iata":"ZFG",
    "name":"Pukatawagan Airport",
    "lon":null,
    "lat":null
  },
  {
    "iata":"ZFM",
    "name":"Fort Mcpherson Airport",
    "lon":-134.95277,
    "lat":67.477776
  },
  {
    "iata":"ZFN",
    "name":"Tulita Airport",
    "lon":-125.566666,
    "lat":64.916664
  },
  {
    "iata":"ZGF",
    "name":"Grand Forks Airport",
    "lon":-118.433334,
    "lat":49.016666
  },
  {
    "iata":"ZGI",
    "name":"Gods River Airport",
    "lon":-94.07965,
    "lat":54.83914
  },
  {
    "iata":"ZGR",
    "name":"Little Grand Rapids Airport",
    "lon":-95.46667,
    "lat":52.066666
  },
  {
    "iata":"ZJG",
    "name":"Jenpeg Airport",
    "lon":-98.04611,
    "lat":54.519444
  },
  {
    "iata":"ZJN",
    "name":"Swan River Airport",
    "lon":-101.23333,
    "lat":52.11667
  },
  {
    "iata":"ZKE",
    "name":"Kashechewan Airport",
    "lon":-81.333336,
    "lat":52.333332
  },
  {
    "iata":"YTD",
    "name":"Thicket Portage Airport",
    "lon":-97.7,
    "lat":55.316666
  },
  {
    "iata":"MSA",
    "name":"Muskrat Dam Airport",
    "lon":-91.98333,
    "lat":53.816666
  },
  {
    "iata":"PIW",
    "name":"Pikwitonei Airport",
    "lon":-97.333336,
    "lat":55.7
  },
  {
    "iata":"ZMT",
    "name":"Masset Airport",
    "lon":-132.15,
    "lat":54.016666
  },
  {
    "iata":"ZNG",
    "name":"Poplar River Airport",
    "lon":-97.26667,
    "lat":53
  },
  {
    "iata":"ZPB",
    "name":"Sachigo Lake Airport",
    "lon":-92.195274,
    "lat":53.890556
  },
  {
    "iata":"ZRJ",
    "name":"Round Lake (Weagamow Lake) Airport",
    "lon":-91.316666,
    "lat":52.95
  },
  {
    "iata":"ZSJ",
    "name":"Sandy Lake Airport",
    "lon":-93.23333,
    "lat":53.033333
  },
  {
    "iata":"ZSN",
    "name":"South Indian Lake Airport",
    "lon":null,
    "lat":null
  },
  {
    "iata":"ZTM",
    "name":"Shamattawa Airport",
    "lon":-92.08035,
    "lat":55.858505
  },
  {
    "iata":"ZUC",
    "name":"Ignace Municipal Airport",
    "lon":-91.833336,
    "lat":49.5
  },
  {
    "iata":"ZUM",
    "name":"Churchill Falls Airport",
    "lon":-64.10917,
    "lat":53.56278
  },
  {
    "iata":"ZWH",
    "name":"Lac Brochet Airport",
    "lon":null,
    "lat":null
  },
  {
    "iata":"ZWL",
    "name":"Wollaston Lake Airport",
    "lon":-103.1683,
    "lat":58.106743
  },
  {
    "iata":"QLD",
    "name":"Blida Airport",
    "lon":null,
    "lat":null
  },
  {
    "iata":"BUJ",
    "name":"Bou Saada Airport",
    "lon":4.15,
    "lat":35.166668
  },
  {
    "iata":"BJA",
    "name":"Soummam Airport",
    "lon":5.083333,
    "lat":36.75
  },
  {
    "iata":"ALG",
    "name":"Houari Boumediene Airport",
    "lon":3.21167,
    "lat":36.70058
  },
  {
    "iata":"DJG",
    "name":"Djanet Inedbirene Airport",
    "lon":9.488889,
    "lat":24.465279
  },
  {
    "iata":"QFD",
    "name":"Boufarik Airport",
    "lon":null,
    "lat":null
  },
  {
    "iata":"VVZ",
    "name":"Illizi Takhamalt Airport",
    "lon":8.55,
    "lat":26.533333
  },
  {
    "iata":"QSF",
    "name":"Ain Arnat Airport",
    "lon":5.331111,
    "lat":36.18139
  },
  {
    "iata":"TMR",
    "name":"",
    "lon":5.459167,
    "lat":22.814722
  },
  {
    "iata":"GJL",
    "name":"Jijel Ferhat Abbas Airport",
    "lon":5.883333,
    "lat":36.8
  },
  {
    "iata":"MZW",
    "name":"Mecheria Airport",
    "lon":-0.242177,
    "lat":33.5354
  },
  {
    "iata":"QZN",
    "name":"Relizane Airport",
    "lon":0.533333,
    "lat":35.833332
  },
  {
    "iata":"AAE",
    "name":"Annaba Airport",
    "lon":7.811857,
    "lat":36.821392
  },
  {
    "iata":"CZL",
    "name":"Mohamed Boudiaf International Airport",
    "lon":6.618425,
    "lat":36.286476
  },
  {
    "iata":"TEE",
    "name":"",
    "lon":8.124067,
    "lat":35.428593
  },
  {
    "iata":"BLJ",
    "name":"Batna Airport",
    "lon":6.183333,
    "lat":35.566666
  },
  {
    "iata":"HRM",
    "name":"Hassi R'Mel Airport",
    "lon":3.2,
    "lat":33.166668
  },
  {
    "iata":"TID",
    "name":"Bou Chekif Airport",
    "lon":1.46946,
    "lat":35.343273
  },
  {
    "iata":"TIN",
    "name":"Tindouf Airport",
    "lon":-8.163246,
    "lat":27.701162
  },
  {
    "iata":"QAS",
    "name":"Ech Cheliff Airport",
    "lon":null,
    "lat":null
  },
  {
    "iata":"TAF",
    "name":"Tafaraoui Airport",
    "lon":-0.610556,
    "lat":35.627777
  },
  {
    "iata":"TLM",
    "name":"",
    "lon":-1.45,
    "lat":35.016666
  },
  {
    "iata":"ORN",
    "name":"Es Senia Airport",
    "lon":-0.606108,
    "lat":35.620018
  },
  {
    "iata":"CBH",
    "name":"",
    "lon":-2.259722,
    "lat":31.647778
  },
  {
    "iata":"MUW",
    "name":"Ghriss Airport",
    "lon":0.147669,
    "lat":35.208534
  },
  {
    "iata":"EBH",
    "name":"El Bayadh Airport",
    "lon":1.094105,
    "lat":33.717804
  },
  {
    "iata":"INF",
    "name":"In Guezzam Airport",
    "lon":5.866667,
    "lat":19.616667
  },
  {
    "iata":"BMW",
    "name":"Bordj Badji Mokhtar Airport",
    "lon":0.926334,
    "lat":21.375816
  },
  {
    "iata":"AZR",
    "name":"Touat Cheikh Sidi Mohamed Belkebir Airport",
    "lon":-0.283333,
    "lat":27.883333
  },
  {
    "iata":"BSK",
    "name":"Biskra Airport",
    "lon":5.738056,
    "lat":34.79333
  },
  {
    "iata":"ELG",
    "name":"El Golea Airport",
    "lon":2.864722,
    "lat":30.5675
  },
  {
    "iata":"GHA",
    "name":"",
    "lon":3.800556,
    "lat":32.38222
  },
  {
    "iata":"HME",
    "name":"Oued Irara Airport",
    "lon":6.145436,
    "lat":31.675303
  },
  {
    "iata":"INZ",
    "name":"In Salah Airport",
    "lon":2.516667,
    "lat":27.25
  },
  {
    "iata":"TGR",
    "name":"Touggourt Sidi Madhi Airport",
    "lon":6.089239,
    "lat":33.066948
  },
  {
    "iata":"LOO",
    "name":"Laghouat Airport",
    "lon":2.934811,
    "lat":33.76102
  },
  {
    "iata":"ELU",
    "name":"Guemar Airport",
    "lon":6.784614,
    "lat":33.5095
  },
  {
    "iata":"TMX",
    "name":"Timimoun Airport",
    "lon":0.284086,
    "lat":29.24174
  },
  {
    "iata":"OGX",
    "name":"Ain el Beida Airport",
    "lon":5.4,
    "lat":31.916668
  },
  {
    "iata":"IAM",
    "name":"",
    "lon":9.638056,
    "lat":28.051111
  },
  {
    "iata":"COO",
    "name":"Cadjehoun Airport",
    "lon":2.385271,
    "lat":6.353097
  },
  {
    "iata":"KDC",
    "name":"Kandi Airport",
    "lon":2.916667,
    "lat":11.116667
  },
  {
    "iata":"NAE",
    "name":"Natitingou Airport",
    "lon":1.366667,
    "lat":10.383333
  },
  {
    "iata":"PKO",
    "name":"Parakou Airport",
    "lon":2.616667,
    "lat":9.35
  },
  {
    "iata":"SVF",
    "name":"",
    "lon":2.483333,
    "lat":8.033333
  },
  {
    "iata":"XKY",
    "name":"Kaya Airport",
    "lon":-1.083333,
    "lat":13.083333
  },
  {
    "iata":"OUG",
    "name":"Ouahigouya Airport",
    "lon":-2.333333,
    "lat":13.516667
  },
  {
    "iata":"XDJ",
    "name":"Djibo Airport",
    "lon":-1.633333,
    "lat":14.1
  },
  {
    "iata":"XLU",
    "name":"Leo Airport",
    "lon":-2.1,
    "lat":11.1
  },
  {
    "iata":"PUP",
    "name":"Po Airport",
    "lon":-1.166667,
    "lat":11.183333
  },
  {
    "iata":"XBO",
    "name":"Boulsa Airport",
    "lon":-0.566667,
    "lat":12.65
  },
  {
    "iata":"XBG",
    "name":"Bogande Airport",
    "lon":-0.133333,
    "lat":12.983333
  },
  {
    "iata":"DIP",
    "name":"Diapaga Airport",
    "lon":2.033333,
    "lat":12.033333
  },
  {
    "iata":"DOR",
    "name":"Dori Airport",
    "lon":-0.033333,
    "lat":14.033333
  },
  {
    "iata":"FNG",
    "name":"Fada N'gourma Airport",
    "lon":0.35,
    "lat":12.066667
  },
  {
    "iata":"XGG",
    "name":"Gorom-Gorom Airport",
    "lon":-0.233333,
    "lat":14.433333
  },
  {
    "iata":"XKA",
    "name":"Kantchari Airport",
    "lon":1.516667,
    "lat":12.483333
  },
  {
    "iata":"TMQ",
    "name":"Tambao Airport",
    "lon":0.083333,
    "lat":14.783333
  },
  {
    "iata":"XPA",
    "name":"Pama Airport",
    "lon":0.7,
    "lat":11.25
  },
  {
    "iata":"ARL",
    "name":"Arly Airport",
    "lon":1.483333,
    "lat":11.6
  },
  {
    "iata":"XSE",
    "name":"Sebba Airport",
    "lon":0.533333,
    "lat":13.433333
  },
  {
    "iata":"TEG",
    "name":"Tenkodogo Airport",
    "lon":-0.316667,
    "lat":11.9
  },
  {
    "iata":"XZA",
    "name":"",
    "lon":-1,
    "lat":11.133333
  },
  {
    "iata":"OUA",
    "name":"Ouagadougou Airport",
    "lon":-1.514283,
    "lat":12.355019
  },
  {
    "iata":"BNR",
    "name":"Banfora Airport",
    "lon":-4.666667,
    "lat":10.666667
  },
  {
    "iata":"DGU",
    "name":"Dedougou Airport",
    "lon":-3.483333,
    "lat":12.466667
  },
  {
    "iata":"XGA",
    "name":"Gaoua Airport",
    "lon":-3.183333,
    "lat":10.333333
  },
  {
    "iata":"XNU",
    "name":"Nouna Airport",
    "lon":-3.866667,
    "lat":12.733333
  },
  {
    "iata":"BOY",
    "name":"Bobo Dioulasso Airport",
    "lon":-4.324444,
    "lat":11.163611
  },
  {
    "iata":"TUQ",
    "name":"Tougan Airport",
    "lon":-3,
    "lat":13
  },
  {
    "iata":"XDE",
    "name":"Diebougou Airport",
    "lon":-3.25,
    "lat":10.966667
  },
  {
    "iata":"XAR",
    "name":"Aribinda Airport",
    "lon":-0.866667,
    "lat":14.233333
  },
  {
    "iata":"ACC",
    "name":"Kotoka International Airport",
    "lon":-0.171769,
    "lat":5.60737
  },
  {
    "iata":"TML",
    "name":"Tamale Airport",
    "lon":-0.876603,
    "lat":9.409979
  },
  {
    "iata":"KMS",
    "name":"Kumasi Airport",
    "lon":-1.591111,
    "lat":6.7125
  },
  {
    "iata":"NYI",
    "name":"Sunyani Airport",
    "lon":-2.329254,
    "lat":7.360586
  },
  {
    "iata":"TKD",
    "name":"Takoradi Airport",
    "lon":-1.773912,
    "lat":34.892727
  },
  {
    "iata":"ABJ",
    "name":"Port Bouet Airport",
    "lon":-3.933015,
    "lat":5.254879
  },
  {
    "iata":"OGO",
    "name":"Abengourou Airport",
    "lon":-3.45,
    "lat":6.7
  },
  {
    "iata":"BXI",
    "name":"Boundiali Airport",
    "lon":-6.5,
    "lat":8.75
  },
  {
    "iata":"BYK",
    "name":"",
    "lon":-5.069167,
    "lat":7.739444
  },
  {
    "iata":"BQO",
    "name":"Bouna Airport",
    "lon":-3,
    "lat":9.266667
  },
  {
    "iata":"BDK",
    "name":"Soko Airport",
    "lon":-2.8,
    "lat":8.033333
  },
  {
    "iata":"DIM",
    "name":"Dimbokro Airport",
    "lon":-4.766667,
    "lat":6.75
  },
  {
    "iata":"DJO",
    "name":"Daloa Airport",
    "lon":-6.466667,
    "lat":6.866944
  },
  {
    "iata":"FEK",
    "name":"Ferkessedougou Airport",
    "lon":-5.2,
    "lat":9.6
  },
  {
    "iata":"GGN",
    "name":"Gagnoa Airport",
    "lon":-5.933333,
    "lat":6.133333
  },
  {
    "iata":"GGO",
    "name":"Guiglo Airport",
    "lon":-7.75,
    "lat":6.333333
  },
  {
    "iata":"HGO",
    "name":"Korhogo Airport",
    "lon":-5.616667,
    "lat":9.413889
  },
  {
    "iata":"MJC",
    "name":"Man Airport",
    "lon":-7.528333,
    "lat":7.381667
  },
  {
    "iata":"KEO",
    "name":"Odienne Airport",
    "lon":-7.570833,
    "lat":9.49
  },
  {
    "iata":"OFI",
    "name":"Ouango Fitini Airport",
    "lon":-4.033333,
    "lat":9.6
  },
  {
    "iata":"SEO",
    "name":"Seguela Airport",
    "lon":-6.666667,
    "lat":7.966667
  },
  {
    "iata":"SPY",
    "name":"San Pedro Airport",
    "lon":-6.626944,
    "lat":4.730278
  },
  {
    "iata":"ZSS",
    "name":"Sassandra Airport",
    "lon":-6.135556,
    "lat":4.924444
  },
  {
    "iata":"TXU",
    "name":"Tabou Airport",
    "lon":-7.366667,
    "lat":4.433333
  },
  {
    "iata":"ASK",
    "name":"Yamoussoukro Airport",
    "lon":-5.283333,
    "lat":6.816667
  },
  {
    "iata":"DKA",
    "name":"Katsina Airport",
    "lon":7.660803,
    "lat":13.003712
  },
  {
    "iata":"ABV",
    "name":"Nnamdi Azikiwe International Airport",
    "lon":7.270447,
    "lat":9.004614
  },
  {
    "iata":"AKR",
    "name":"Akure Airport",
    "lon":5.083333,
    "lat":7.25
  },
  {
    "iata":"ABB",
    "name":"Asaba International Airport",
    "lon":6.667222,
    "lat":6.203055
  },
  {
    "iata":"BNI",
    "name":"Benin Airport",
    "lon":5.603863,
    "lat":6.316943
  },
  {
    "iata":"CBQ",
    "name":"Margaret Ekpo International Airport",
    "lon":8.347415,
    "lat":4.96889
  },
  {
    "iata":"ENU",
    "name":"Akanu Ibiam International Airport",
    "lon":7.56772,
    "lat":6.472048
  },
  {
    "iata":"QUS",
    "name":"Gusau Airport",
    "lon":null,
    "lat":null
  },
  {
    "iata":"IBA",
    "name":"Ibadan Airport",
    "lon":3.976361,
    "lat":7.360181
  },
  {
    "iata":"ILR",
    "name":"Ilorin International Airport",
    "lon":4.533333,
    "lat":8.5
  },
  {
    "iata":"QOW",
    "name":"Sam Mbakwe International Airport",
    "lon":7.201676,
    "lat":5.427866
  },
  {
    "iata":"JOS",
    "name":"Yakubu Gowon Airport",
    "lon":8.893056,
    "lat":9.868056
  },
  {
    "iata":"KAD",
    "name":"Kaduna Airport",
    "lon":7.440278,
    "lat":10.595833
  },
  {
    "iata":"KAN",
    "name":"Mallam Aminu International Airport",
    "lon":8.522271,
    "lat":12.045549
  },
  {
    "iata":"MIU",
    "name":"Maiduguri International Airport",
    "lon":13.082928,
    "lat":11.855487
  },
  {
    "iata":"MDI",
    "name":"Makurdi Airport",
    "lon":8.533333,
    "lat":7.75
  },
  {
    "iata":"LOS",
    "name":"Murtala Muhammed International Airport",
    "lon":3.321178,
    "lat":6.577871
  },
  {
    "iata":"MXJ",
    "name":"Minna Airport",
    "lon":6.533333,
    "lat":9.616667
  },
  {
    "iata":"PHC",
    "name":"Port Harcourt International Airport",
    "lon":6.9499,
    "lat":5.006506
  },
  {
    "iata":"SKO",
    "name":"Sadiq Abubakar III International Airport",
    "lon":5.242222,
    "lat":13.006389
  },
  {
    "iata":"YOL",
    "name":"Yola Airport",
    "lon":12.428114,
    "lat":9.266729
  },
  {
    "iata":"ZAR",
    "name":"Zaria Airport",
    "lon":7.666667,
    "lat":11
  },
  {
    "iata":"STI",
    "name":"Santiago Municipal Airport",
    "lon":-70.603355,
    "lat":19.404486
  },
  {
    "iata":"DQA",
    "name":"Saertu Airport",
    "lon":125.147156,
    "lat":46.75015
  },
  {
    "iata":"MFQ",
    "name":"Maradi Airport",
    "lon":7.125278,
    "lat":13.5025
  },
  {
    "iata":"NIM",
    "name":"Diori Hamani International Airport",
    "lon":2.177158,
    "lat":13.476534
  },
  {
    "iata":"THZ",
    "name":"Tahoua Airport",
    "lon":5.263889,
    "lat":14.872778
  },
  {
    "iata":"AJY",
    "name":"Mano Dayak International Airport",
    "lon":7.993056,
    "lat":16.964167
  },
  {
    "iata":"ZND",
    "name":"Zinder Airport",
    "lon":8.983056,
    "lat":13.779444
  },
  {
    "iata":"TBJ",
    "name":"Tabarka 7 Novembre Airport",
    "lon":8.876389,
    "lat":36.978333
  },
  {
    "iata":"MIR",
    "name":"Monastir Habib Bourguiba International Airport",
    "lon":10.753155,
    "lat":35.76108
  },
  {
    "iata":"TUN",
    "name":"Tunis Carthage International Airport",
    "lon":10.21709,
    "lat":36.847622
  },
  {
    "iata":"OIZ",
    "name":"Sidi Ahmed Air Base",
    "lon":null,
    "lat":null
  },
  {
    "iata":"GAF",
    "name":"Gafsa Ksar International Airport",
    "lon":8.816667,
    "lat":34.416668
  },
  {
    "iata":"GAE",
    "name":"",
    "lon":9.919377,
    "lat":33.73569
  },
  {
    "iata":"DJE",
    "name":"Djerba Zarzis International Airport",
    "lon":10.775145,
    "lat":33.87118
  },
  {
    "iata":"EBM",
    "name":"El Borma Airport",
    "lon":9.266667,
    "lat":31.716667
  },
  {
    "iata":"SFA",
    "name":"Sfax Thyna International Airport",
    "lon":10.683333,
    "lat":34.716667
  },
  {
    "iata":"TOE",
    "name":"Tozeur Nefta International Airport",
    "lon":8.133333,
    "lat":33.916668
  },
  {
    "iata":"DWR",
    "name":"Dywer Airbase",
    "lon":null,
    "lat":null
  },
  {
    "iata":"LRL",
    "name":"Niamtougou International Airport",
    "lon":1.133333,
    "lat":9.833333
  },
  {
    "iata":"LFW",
    "name":"",
    "lon":1.250347,
    "lat":6.167103
  },
  {
    "iata":"ANR",
    "name":"Antwerp International Airport (Deurne)",
    "lon":4.450672,
    "lat":51.18916
  },
  {
    "iata":"BRU",
    "name":"Brussels Airport",
    "lon":4.483602,
    "lat":50.89717
  },
  {
    "iata":"CRL",
    "name":"Brussels South Charleroi Airport",
    "lon":4.451703,
    "lat":50.456696
  },
  {
    "iata":"KJK",
    "name":"Wevelgem Airport",
    "lon":3.201667,
    "lat":50.817223
  },
  {
    "iata":"LGG",
    "name":"",
    "lon":5.460149,
    "lat":50.643333
  },
  {
    "iata":"QNM",
    "name":"",
    "lon":null,
    "lat":null
  },
  {
    "iata":"OST",
    "name":"Ostend-Bruges International Airport",
    "lon":2.863611,
    "lat":51.199722
  },
  {
    "iata":"QHA",
    "name":"Hasselt Airport",
    "lon":null,
    "lat":null
  },
  {
    "iata":"OBL",
    "name":"Oostmalle Air Base",
    "lon":4.75,
    "lat":51.266666
  },
  {
    "iata":"MZD",
    "name":"",
    "lon":-78.316666,
    "lat":-2.733333
  },
  {
    "iata":"AOC",
    "name":"Altenburg-Nobitz Airport",
    "lon":12.45,
    "lat":50.983334
  },
  {
    "iata":"HDF",
    "name":"Heringsdorf Airport",
    "lon":14.138242,
    "lat":53.87825
  },
  {
    "iata":"BBH",
    "name":"Barth Airport",
    "lon":12.711667,
    "lat":54.33972
  },
  {
    "iata":"ZMG",
    "name":"Magdeburg Airport",
    "lon":null,
    "lat":null
  },
  {
    "iata":"CBU",
    "name":"Cottbus-Drewitz Airport",
    "lon":14.299167,
    "lat":51.77028
  },
  {
    "iata":"SXF",
    "name":"",
    "lon":13.521388,
    "lat":52.370277
  },
  {
    "iata":"DRS",
    "name":"Dresden Airport",
    "lon":13.766082,
    "lat":51.124332
  },
  {
    "iata":"ERF",
    "name":"Erfurt Airport",
    "lon":10.961163,
    "lat":50.974915
  },
  {
    "iata":"FRA",
    "name":"Frankfurt am Main International Airport",
    "lon":8.570773,
    "lat":50.050735
  },
  {
    "iata":"FMO",
    "name":"Muenster Osnabrueck Airport",
    "lon":7.694928,
    "lat":52.130054
  },
  {
    "iata":"HAM",
    "name":"Hamburg Airport",
    "lon":10.006414,
    "lat":53.63128
  },
  {
    "iata":"CGN",
    "name":"Cologne Bonn Airport",
    "lon":7.122224,
    "lat":50.878365
  },
  {
    "iata":"DUS",
    "name":"Dusseldorf International Airport",
    "lon":6.76558,
    "lat":51.278328
  },
  {
    "iata":"MUC",
    "name":"Munich International Airport",
    "lon":11.790143,
    "lat":48.353004
  },
  {
    "iata":"NUE",
    "name":"Nuremberg Airport",
    "lon":11.077062,
    "lat":49.494167
  },
  {
    "iata":"LEJ",
    "name":"Leipzig Halle Airport",
    "lon":12.221202,
    "lat":51.42026
  },
  {
    "iata":"SCN",
    "name":"",
    "lon":7.112705,
    "lat":49.22009
  },
  {
    "iata":"STR",
    "name":"Stuttgart Airport",
    "lon":9.193624,
    "lat":48.69073
  },
  {
    "iata":"TXL",
    "name":"Berlin-Tegel International Airport",
    "lon":13.291722,
    "lat":52.553944
  },
  {
    "iata":"HAJ",
    "name":"Hannover Airport",
    "lon":9.694766,
    "lat":52.459255
  },
  {
    "iata":"BRE",
    "name":"Bremen Airport",
    "lon":8.785352,
    "lat":53.05297
  },
  {
    "iata":"QEF",
    "name":"Frankfurt-Egelsbach Airport",
    "lon":null,
    "lat":null
  },
  {
    "iata":"HHN",
    "name":"Frankfurt-Hahn Airport",
    "lon":7.264167,
    "lat":49.948334
  },
  {
    "iata":"MHG",
    "name":"Mannheim-City Airport",
    "lon":8.521081,
    "lat":49.476578
  },
  {
    "iata":"ZQV",
    "name":"Worms Airport",
    "lon":null,
    "lat":null
  },
  {
    "iata":"QMZ",
    "name":"Mainz-Finthen Airport",
    "lon":null,
    "lat":null
  },
  {
    "iata":"SGE",
    "name":"Siegerland Airport",
    "lon":8,
    "lat":50.85
  },
  {
    "iata":"XFW",
    "name":"Hamburg-Finkenwerder Airport",
    "lon":9.83738,
    "lat":53.53596
  },
  {
    "iata":"KEL",
    "name":"Kiel-Holtenau Airport",
    "lon":10.143333,
    "lat":54.380833
  },
  {
    "iata":"LBC",
    "name":"",
    "lon":10.701162,
    "lat":53.80527
  },
  {
    "iata":"EUM",
    "name":"",
    "lon":9.966667,
    "lat":54.066666
  },
  {
    "iata":"FMM",
    "name":"Memmingen Allgau Airport",
    "lon":10.239444,
    "lat":47.98861
  },
  {
    "iata":"AAH",
    "name":"",
    "lon":6.133333,
    "lat":50.75
  },
  {
    "iata":"ESS",
    "name":"Essen Mulheim Airport",
    "lon":6.941667,
    "lat":51.40389
  },
  {
    "iata":"BFE",
    "name":"Bielefeld Airport",
    "lon":8.55,
    "lat":52.016666
  },
  {
    "iata":"MGL",
    "name":"",
    "lon":6.544444,
    "lat":51.35278
  },
  {
    "iata":"PAD",
    "name":"Paderborn Lippstadt Airport",
    "lon":8.619832,
    "lat":51.610332
  },
  {
    "iata":"NRN",
    "name":"Niederrhein Airport",
    "lon":6.150168,
    "lat":51.599285
  },
  {
    "iata":"DTM",
    "name":"Dortmund Airport",
    "lon":7.613139,
    "lat":51.514828
  },
  {
    "iata":"AGB",
    "name":"Augsburg Airport",
    "lon":10.931667,
    "lat":48.425278
  },
  {
    "iata":"OBF",
    "name":"Oberpfaffenhofen Airport",
    "lon":11.283333,
    "lat":48.083332
  },
  {
    "iata":"RBM",
    "name":"Straubing Airport",
    "lon":12.519722,
    "lat":48.901943
  },
  {
    "iata":"FDH",
    "name":"Friedrichshafen Airport",
    "lon":9.523482,
    "lat":47.672775
  },
  {
    "iata":"FRF",
    "name":"Oschersleben Airport",
    "lon":8.683333,
    "lat":50.1
  },
  {
    "iata":"SZW",
    "name":"Schwerin Parchim Airport",
    "lon":11.790721,
    "lat":53.42529
  },
  {
    "iata":"BYU",
    "name":"Bayreuth Airport",
    "lon":11.64,
    "lat":49.985558
  },
  {
    "iata":"QOB",
    "name":"Ansbach-Petersdorf Airport",
    "lon":null,
    "lat":null
  },
  {
    "iata":"HOQ",
    "name":"Hof-Plauen Airport",
    "lon":11.862222,
    "lat":50.289165
  },
  {
    "iata":"BBJ",
    "name":"Bitburg Airport",
    "lon":6.516667,
    "lat":49.966667
  },
  {
    "iata":"ZQW",
    "name":"",
    "lon":7.399708,
    "lat":49.21516
  },
  {
    "iata":"FKB",
    "name":"Karlsruhe Baden-Baden Airport",
    "lon":8.089752,
    "lat":48.781033
  },
  {
    "iata":"ZQL",
    "name":"Donaueschingen-Villingen Airport",
    "lon":null,
    "lat":null
  },
  {
    "iata":"LHA",
    "name":"Lahr Airport",
    "lon":7.883333,
    "lat":48.333332
  },
  {
    "iata":"BWE",
    "name":"Braunschweig Wolfsburg Airport",
    "lon":10.533333,
    "lat":52.266666
  },
  {
    "iata":"KSF",
    "name":"Kassel-Calden Airport",
    "lon":9.376578,
    "lat":51.40568
  },
  {
    "iata":"BRV",
    "name":"Bremerhaven Airport",
    "lon":8.916667,
    "lat":53.75
  },
  {
    "iata":"XLW",
    "name":"Lemwerder Airport",
    "lon":8.6,
    "lat":53.166668
  },
  {
    "iata":"EME",
    "name":"Emden Airport",
    "lon":7.2,
    "lat":53.36667
  },
  {
    "iata":"AGE",
    "name":"Wangerooge Airport",
    "lon":7.916667,
    "lat":53.783333
  },
  {
    "iata":"WVN",
    "name":"Wilhelmshaven-Mariensiel Airport",
    "lon":8.116667,
    "lat":53.533333
  },
  {
    "iata":"JUI",
    "name":"Juist Airport",
    "lon":7.066667,
    "lat":53.683334
  },
  {
    "iata":"LGO",
    "name":"Langeoog Airport",
    "lon":7.533333,
    "lat":53.766666
  },
  {
    "iata":"ZOW",
    "name":"Nordhorn-Lingen Airport",
    "lon":null,
    "lat":null
  },
  {
    "iata":"BMK",
    "name":"Borkum Airport",
    "lon":6.7,
    "lat":53.6
  },
  {
    "iata":"NOD",
    "name":"Norden-Norddeich Airport",
    "lon":7.2,
    "lat":53.583332
  },
  {
    "iata":"VAC",
    "name":"Varrelbusch Airport",
    "lon":8.05,
    "lat":52.916668
  },
  {
    "iata":"NRD",
    "name":"Norderney Airport",
    "lon":7.166667,
    "lat":53.833332
  },
  {
    "iata":"BMR",
    "name":"Baltrum Airport",
    "lon":7.4,
    "lat":53.716667
  },
  {
    "iata":"HEI",
    "name":"",
    "lon":8.902778,
    "lat":54.155556
  },
  {
    "iata":"FLF",
    "name":"",
    "lon":9.383333,
    "lat":54.77222
  },
  {
    "iata":"HGL",
    "name":"",
    "lon":7.916667,
    "lat":54.186943
  },
  {
    "iata":"PSH",
    "name":"St. Peter-Ording Airport",
    "lon":8.116667,
    "lat":54.5
  },
  {
    "iata":"GWT",
    "name":"Westerland Sylt Airport",
    "lon":8.343056,
    "lat":54.91528
  },
  {
    "iata":"OHR",
    "name":"",
    "lon":8.529167,
    "lat":54.685833
  },
  {
    "iata":"KDL",
    "name":"",
    "lon":22.8,
    "lat":58.983334
  },
  {
    "iata":"URE",
    "name":"Kuressaare Airport",
    "lon":22.5,
    "lat":58.216667
  },
  {
    "iata":"EPU",
    "name":"",
    "lon":24.472778,
    "lat":58.418888
  },
  {
    "iata":"TLL",
    "name":"Tallinn Airport",
    "lon":24.798702,
    "lat":59.416622
  },
  {
    "iata":"TAY",
    "name":"Tartu Airport",
    "lon":26.733334,
    "lat":58.333332
  },
  {
    "iata":"ENF",
    "name":"Enontekio Airport",
    "lon":23.42208,
    "lat":68.36018
  },
  {
    "iata":"QVE",
    "name":"Forssa Airport",
    "lon":null,
    "lat":null
  },
  {
    "iata":"KEV",
    "name":"Halli Airport",
    "lon":24.75,
    "lat":61.583332
  },
  {
    "iata":"HEM",
    "name":"Helsinki Malmi Airport",
    "lon":25.05,
    "lat":60.25
  },
  {
    "iata":"HEL",
    "name":"Helsinki Vantaa Airport",
    "lon":24.96645,
    "lat":60.31795
  },
  {
    "iata":"HYV",
    "name":"Hyvinkaa Airport",
    "lon":24.884443,
    "lat":60.654167
  },
  {
    "iata":"KTQ",
    "name":"Kitee Airport",
    "lon":30.076668,
    "lat":62.165833
  },
  {
    "iata":"IVL",
    "name":"Ivalo Airport",
    "lon":27.415556,
    "lat":68.611115
  },
  {
    "iata":"JOE",
    "name":"Joensuu Airport",
    "lon":29.61354,
    "lat":62.656788
  },
  {
    "iata":"JYV",
    "name":"Jyvaskyla Airport",
    "lon":25.68143,
    "lat":62.40362
  },
  {
    "iata":"KAU",
    "name":"Kauhava Airport",
    "lon":23.083332,
    "lat":63.1
  },
  {
    "iata":"KEM",
    "name":"Kemi-Tornio Airport",
    "lon":24.57677,
    "lat":65.78006
  },
  {
    "iata":"KAJ",
    "name":"Kajaani Airport",
    "lon":27.688889,
    "lat":64.27778
  },
  {
    "iata":"KHJ",
    "name":"Kauhajoki Airport",
    "lon":22.394722,
    "lat":62.463055
  },
  {
    "iata":"KOK",
    "name":"Kruunupyy Airport",
    "lon":23.133068,
    "lat":63.718838
  },
  {
    "iata":"KAO",
    "name":"Kuusamo Airport",
    "lon":29.233889,
    "lat":65.99028
  },
  {
    "iata":"KTT",
    "name":"Kittila Airport",
    "lon":24.859028,
    "lat":67.695946
  },
  {
    "iata":"KUO",
    "name":"Kuopio Airport",
    "lon":27.788696,
    "lat":63.008907
  },
  {
    "iata":"QLF",
    "name":"Lahti Vesivehmaa Airport",
    "lon":null,
    "lat":null
  },
  {
    "iata":"LPP",
    "name":"Lappeenranta Airport",
    "lon":28.156668,
    "lat":61.046112
  },
  {
    "iata":"MHQ",
    "name":"Mariehamn Airport",
    "lon":19.896667,
    "lat":60.123333
  },
  {
    "iata":"MIK",
    "name":"Mikkeli Airport",
    "lon":27.213057,
    "lat":61.683887
  },
  {
    "iata":"OUL",
    "name":"Oulu Airport",
    "lon":25.375425,
    "lat":64.93012
  },
  {
    "iata":"POR",
    "name":"Pori Airport",
    "lon":21.791382,
    "lat":61.46866
  },
  {
    "iata":"RVN",
    "name":"Rovaniemi Airport",
    "lon":25.829609,
    "lat":66.559044
  },
  {
    "iata":"SVL",
    "name":"Savonlinna Airport",
    "lon":28.95,
    "lat":61.95
  },
  {
    "iata":"SJY",
    "name":"",
    "lon":22.835285,
    "lat":62.6932
  },
  {
    "iata":"SOT",
    "name":"Sodankyla Airport",
    "lon":26.616667,
    "lat":67.38333
  },
  {
    "iata":"TMP",
    "name":"Tampere-Pirkkala Airport",
    "lon":23.617563,
    "lat":61.42045
  },
  {
    "iata":"TKU",
    "name":"Turku Airport",
    "lon":22.28098,
    "lat":60.512794
  },
  {
    "iata":"UTI",
    "name":"Utti Air Base",
    "lon":26.933332,
    "lat":60.9
  },
  {
    "iata":"VAA",
    "name":"Vaasa Airport",
    "lon":21.760122,
    "lat":63.04355
  },
  {
    "iata":"VRK",
    "name":"Varkaus Airport",
    "lon":27.933332,
    "lat":62.3
  },
  {
    "iata":"YLI",
    "name":"Ylivieska Airport",
    "lon":24.72889,
    "lat":64.05444
  },
  {
    "iata":"AUE",
    "name":"Abu Rudeis Airport",
    "lon":33.183334,
    "lat":28.9
  },
  {
    "iata":"BFS",
    "name":"Belfast International Airport",
    "lon":-6.217616,
    "lat":54.662395
  },
  {
    "iata":"ENK",
    "name":"St Angelo Airport",
    "lon":-7.633333,
    "lat":54.35
  },
  {
    "iata":"BHD",
    "name":"George Best Belfast City Airport",
    "lon":-5.870215,
    "lat":54.61452
  },
  {
    "iata":"LDY",
    "name":"City of Derry Airport",
    "lon":-7.156924,
    "lat":55.040985
  },
  {
    "iata":"BHX",
    "name":"Birmingham International Airport",
    "lon":-1.733256,
    "lat":52.45252
  },
  {
    "iata":"CVT",
    "name":"Coventry Airport",
    "lon":-1.478611,
    "lat":52.369167
  },
  {
    "iata":"GLO",
    "name":"Gloucestershire Airport",
    "lon":-2.233333,
    "lat":51.88333
  },
  {
    "iata":"ORM",
    "name":"Sywell Aerodrome",
    "lon":-0.9,
    "lat":52.233334
  },
  {
    "iata":"NQT",
    "name":"Nottingham Airport",
    "lon":-1.166667,
    "lat":52.966667
  },
  {
    "iata":"MAN",
    "name":"Manchester Airport",
    "lon":-2.273354,
    "lat":53.362907
  },
  {
    "iata":"XXB",
    "name":"Manchester Woodford Airport",
    "lon":null,
    "lat":null
  },
  {
    "iata":"DSA",
    "name":"Robin Hood Doncaster Sheffield Airport",
    "lon":-1.01155,
    "lat":53.481003
  },
  {
    "iata":"LYE",
    "name":"RAF Lyneham",
    "lon":-1.966667,
    "lat":51.516666
  },
  {
    "iata":"DGX",
    "name":"MOD St. Athan",
    "lon":null,
    "lat":null
  },
  {
    "iata":"YEO",
    "name":"RNAS Yeovilton",
    "lon":-2.55,
    "lat":51.016666
  },
  {
    "iata":"CAL",
    "name":"Campbeltown Airport",
    "lon":-5.686667,
    "lat":55.43639
  },
  {
    "iata":"EOI",
    "name":"Eday Airport",
    "lon":-2.783333,
    "lat":59.183334
  },
  {
    "iata":"FIE",
    "name":"Fair Isle Airport",
    "lon":-1.666667,
    "lat":59.5
  },
  {
    "iata":"WHS",
    "name":"Whalsay Airport",
    "lon":-0.983333,
    "lat":60.36667
  },
  {
    "iata":"COL",
    "name":"Coll Airport",
    "lon":-6.616667,
    "lat":56.61667
  },
  {
    "iata":"NRL",
    "name":"North Ronaldsay Airport",
    "lon":-2.433333,
    "lat":59.370277
  },
  {
    "iata":"OBN",
    "name":"Oban Airport",
    "lon":-5.396494,
    "lat":56.465275
  },
  {
    "iata":"PPW",
    "name":"Papa Westray Airport",
    "lon":-2.898974,
    "lat":59.351265
  },
  {
    "iata":"SOY",
    "name":"Stronsay Airport",
    "lon":-2.640495,
    "lat":59.154053
  },
  {
    "iata":"NDY",
    "name":"Sanday Airport",
    "lon":-2.583333,
    "lat":59.25
  },
  {
    "iata":"LWK",
    "name":"Lerwick / Tingwall Airport",
    "lon":-1.15,
    "lat":60.15
  },
  {
    "iata":"WRY",
    "name":"Westray Airport",
    "lon":-2.95,
    "lat":59.35
  },
  {
    "iata":"CSA",
    "name":"Colonsay Airstrip",
    "lon":-6.2,
    "lat":56.083332
  },
  {
    "iata":"HAW",
    "name":"Haverfordwest Airport",
    "lon":-4.966667,
    "lat":51.8
  },
  {
    "iata":"CWL",
    "name":"Cardiff International Airport",
    "lon":-3.339075,
    "lat":51.39877
  },
  {
    "iata":"SWS",
    "name":"Swansea Airport",
    "lon":-3.95,
    "lat":51.63333
  },
  {
    "iata":"BRS",
    "name":"Bristol International Airport",
    "lon":-2.710659,
    "lat":51.386757
  },
  {
    "iata":"LPL",
    "name":"Liverpool John Lennon Airport",
    "lon":-2.854905,
    "lat":53.337616
  },
  {
    "iata":"LTN",
    "name":"London Luton Airport",
    "lon":-0.376232,
    "lat":51.87977
  },
  {
    "iata":"LEQ",
    "name":"Land's End Airport",
    "lon":-5.733333,
    "lat":50.05
  },
  {
    "iata":"PLH",
    "name":"Plymouth City Airport",
    "lon":-4.110009,
    "lat":50.422337
  },
  {
    "iata":"ISC",
    "name":"St. Mary's Airport",
    "lon":-6.291667,
    "lat":49.913334
  },
  {
    "iata":"BOH",
    "name":"Bournemouth Airport",
    "lon":-1.832476,
    "lat":50.77827
  },
  {
    "iata":"SOU",
    "name":"Southampton Airport",
    "lon":-1.361318,
    "lat":50.950726
  },
  {
    "iata":"BBP",
    "name":"Bembridge Airport",
    "lon":-1.083333,
    "lat":50.683334
  },
  {
    "iata":"QLA",
    "name":"Lasham Airport",
    "lon":-1.157375,
    "lat":51.21111
  },
  {
    "iata":"NQY",
    "name":"Newquay Cornwall Airport",
    "lon":-4.997922,
    "lat":50.43745
  },
  {
    "iata":"QUG",
    "name":"Chichester/Goodwood Airport",
    "lon":-0.842248,
    "lat":50.941666
  },
  {
    "iata":"ACI",
    "name":"Alderney Airport",
    "lon":-2.215369,
    "lat":49.709347
  },
  {
    "iata":"GCI",
    "name":"Guernsey Airport",
    "lon":-2.595044,
    "lat":49.432755
  },
  {
    "iata":"JER",
    "name":"Jersey Airport",
    "lon":-2.194344,
    "lat":49.205296
  },
  {
    "iata":"ESH",
    "name":"Shoreham Airport",
    "lon":-0.3,
    "lat":50.833332
  },
  {
    "iata":"BQH",
    "name":"London Biggin Hill Airport",
    "lon":0.033333,
    "lat":51.333332
  },
  {
    "iata":"LGW",
    "name":"London Gatwick Airport",
    "lon":-0.161863,
    "lat":51.156807
  },
  {
    "iata":"KRH",
    "name":"Redhill Aerodrome",
    "lon":-0.186211,
    "lat":51.33611
  },
  {
    "iata":"LCY",
    "name":"London City Airport",
    "lon":0.05,
    "lat":51.5
  },
  {
    "iata":"FAB",
    "name":"Farnborough Airport",
    "lon":-0.766667,
    "lat":51.283333
  },
  {
    "iata":"BBS",
    "name":"Blackbushe Airport",
    "lon":-0.85,
    "lat":51.333332
  },
  {
    "iata":"LHR",
    "name":"London Heathrow Airport",
    "lon":-0.453566,
    "lat":51.469604
  },
  {
    "iata":"SEN",
    "name":"Southend Airport",
    "lon":0.701389,
    "lat":51.572777
  },
  {
    "iata":"LYX",
    "name":"Lydd Airport",
    "lon":0.938414,
    "lat":50.955334
  },
  {
    "iata":"MSE",
    "name":"Kent International Airport",
    "lon":1.35,
    "lat":51.35
  },
  {
    "iata":"CAX",
    "name":"Carlisle Airport",
    "lon":-2.809444,
    "lat":54.93667
  },
  {
    "iata":"BLK",
    "name":"Blackpool International Airport",
    "lon":-3.041985,
    "lat":53.778385
  },
  {
    "iata":"HUY",
    "name":"Humberside Airport",
    "lon":-0.34851,
    "lat":53.583378
  },
  {
    "iata":"BWF",
    "name":"Barrow Walney Island Airport",
    "lon":-3.233333,
    "lat":54.11667
  },
  {
    "iata":"LBA",
    "name":"Leeds Bradford Airport",
    "lon":-1.659985,
    "lat":53.86934
  },
  {
    "iata":"CEG",
    "name":"Hawarden Airport",
    "lon":-2.970718,
    "lat":53.178604
  },
  {
    "iata":"IOM",
    "name":"Isle of Man Airport",
    "lon":-4.63473,
    "lat":54.08677
  },
  {
    "iata":"NCL",
    "name":"Newcastle Airport",
    "lon":-1.710629,
    "lat":55.037064
  },
  {
    "iata":"MME",
    "name":"Durham Tees Valley Airport",
    "lon":-1.434013,
    "lat":54.512226
  },
  {
    "iata":"EMA",
    "name":"East Midlands Airport",
    "lon":-1.330595,
    "lat":52.82587
  },
  {
    "iata":"HLY",
    "name":"Anglesey Airport",
    "lon":-4.633333,
    "lat":53.3
  },
  {
    "iata":"KOI",
    "name":"Kirkwall Airport",
    "lon":-2.900556,
    "lat":58.958057
  },
  {
    "iata":"LSI",
    "name":"Sumburgh Airport",
    "lon":-1.287111,
    "lat":59.877888
  },
  {
    "iata":"WIC",
    "name":"Wick Airport",
    "lon":-3.086667,
    "lat":58.456944
  },
  {
    "iata":"ABZ",
    "name":"Aberdeen Dyce Airport",
    "lon":-2.204186,
    "lat":57.200253
  },
  {
    "iata":"INV",
    "name":"Inverness Airport",
    "lon":-4.063738,
    "lat":57.539345
  },
  {
    "iata":"GLA",
    "name":"Glasgow International Airport",
    "lon":-4.431782,
    "lat":55.864212
  },
  {
    "iata":"EDI",
    "name":"Edinburgh Airport",
    "lon":-3.364177,
    "lat":55.948143
  },
  {
    "iata":"ILY",
    "name":"Islay Airport",
    "lon":-6.254167,
    "lat":55.681946
  },
  {
    "iata":"PIK",
    "name":"Glasgow Prestwick Airport",
    "lon":-4.611286,
    "lat":55.50843
  },
  {
    "iata":"BEB",
    "name":"Benbecula Airport",
    "lon":-7.376028,
    "lat":57.473415
  },
  {
    "iata":"SCS",
    "name":"Scatsta Airport",
    "lon":-1.294972,
    "lat":60.436825
  },
  {
    "iata":"DND",
    "name":"Dundee Airport",
    "lon":-3.014531,
    "lat":56.45409
  },
  {
    "iata":"SYY",
    "name":"Stornoway Airport",
    "lon":-6.321995,
    "lat":58.213627
  },
  {
    "iata":"BRR",
    "name":"Barra Airport",
    "lon":-7.440278,
    "lat":57.023335
  },
  {
    "iata":"PSL",
    "name":"Perth/Scone Airport",
    "lon":-3.566667,
    "lat":56.233334
  },
  {
    "iata":"TRE",
    "name":"Tiree Airport",
    "lon":-6.871389,
    "lat":56.500557
  },